,Popularity,Name,Calfication,Num_reviwes,Phone,Webside,Latitude,Longitude,Type_food,Comida,Servicio,Calidad/precio,Ambiente
0,1,La Mansion Marriott Reforma,5.0,1086.0,+52 55 1102 7021,http://www.facebook.com/mansionmarriottreforma,19.428345,-99.16426,"Mexicana, Parrillada",4.5,4.5,4.5,4.0
1,2,Balta,5.0,546.0,+52 55 8660 0500,http://www.sofitel-mexico-city.com/restaurants/balta-restaurant/,19.428432,-99.16592,"Mexicana, Mediterránea, Europea, Parrilla",4.5,5.0,4.5,
2,3,Condimento Restaurant,5.0,757.0,+52 55 1102 7030,http://www.marriott.com/hotels/hotel-information/restaurant/MEXMC&scid=d42e66eb-35c2-4d9c-9219-ae39f3a2ca9f,19.427828,-99.164024,Internacional,4.5,4.5,4.5,4.0
3,4,La Distral,5.0,393.0,+52 55 5140 4100,http://www.fiestamericana.com/hoteles-y-resorts/fiesta-americana-reforma-ciudad-de-mexico/hotel-dining/la-distral,19.433002,-99.15458,"Mexicana, Latina, Internacional",4.5,4.5,4.5,
4,5,Taquería y Restaurante Takotl,5.0,167.0,+52 55 4778 6428,http://linkreview.biz/mx/takotl,19.416248,-99.16546,"Mexicana, Internacional, Bar, Pub",5.0,5.0,5.0,
5,6,Restaurante Condimento Emporio Reforma,5.0,514.0,+52 55 5128 1128,http://hotelesemporio.com/hoteles/emporio-ciudad-de-mexico/,19.431667,-99.157,Mexicana,,,,
6,7,Parole Polanco,5.0,1613.0,+52 55 5801 0251,http://parole.mx/en/location-cdmx-restaurant,19.430412,-99.1994,"Italiana, Contemporánea, Toscana, Del centro italiano",4.0,4.0,3.5,
7,8,Sonora Grill Coapa,5.0,751.0,+52 55 2063 3499,http://sonoragrill.com.mx,19.294357,-99.12684,"Mexicana, Bar, Saludable",4.0,4.0,3.5,
8,9,Animal,5.0,574.0,+52 55 7691 3120,http://costeno.com/animal,19.432081,-99.19929,"Mexicana, Fusión, Gastropub, Bar",5.0,4.5,4.5,
9,10,Zefiro,5.0,842.0,+52 57097983,http://www.elclaustro.edu.mx/zefiro/,19.427332,-99.1382,"Mexicana, Contemporánea",5.0,5.0,4.5,4.5
10,11,Parrilla Urbana División del Norte,4.5,689.0,+52 55 5687 0533,http://parrillaurbana.com.mx/,19.393099,-99.16061,"Mexicana, Latina, Bar",4.0,3.5,3.5,4.0
11,12,La Vicenta,5.0,678.0,+52 55 9130 7261,http://lavicenta.com.mx/ubicaciones/,19.4866,-99.152115,"Latina, Parrilla, Mexicana",4.5,4.5,4.0,
12,13,Sonora Grill Narvarte,5.0,408.0,+52 55 5638 0825,http://sonoragrill.com.mx/,19.393164,-99.16072,"Mexicana, Churrasquería",4.5,4.0,4.0,
13,14,Cambalache Plaza Oasis,4.5,780.0,+52 55 5025 4307,http://www.cambalacherestaurantes.com/#coyoacan,19.344442,-99.17947,"Argentina, Internacional, Parrilla, Contemporánea",4.5,4.5,4.0,
14,15,Ilios Greek Estiatorio Polanco,5.0,405.0,+52 55 9688 6866,http://iliosrestaurante.com.mx/cdmx,19.431807,-99.19404,"Bar, Mediterránea, Griega",4.5,4.5,4.0,
15,16,Taboo Polanco,5.0,723.0,+52 55 2155 2298,http://taboorestaurant.com.mx/en/reservations/cdmx-restaurants,19.431421,-99.193085,"Mariscos, Mediterránea, Internacional, Contemporánea",5.0,4.5,4.5,
16,17,Porfirio's Coapa,5.0,652.0,+52 55 1717 3418,http://porfirios.com.mx/,19.294926,-99.12639,"Mexicana, Parrilla, Contemporánea",4.5,4.5,4.5,
17,18,KYU MÉXICO,5.0,381.0,+52 55 8848 3496,http://www.kyumexico.com,19.431955,-99.20089,"Asiática, Tailandesa, Coreana, Fusión",4.5,4.5,4.0,
18,19,Quattro Gastronomía Italiana,5.0,749.0,+52 55 9177 9727,http://www.quattro.com.mx/,19.367119,-99.26036,"Italiana, Mediterránea, Europea, Saludable, Toscana, Romana, De Lacio, Siciliana, Del centro italiano, Del sur italiano",4.5,4.5,4.0,4.5
19,20,Cityzen Rooftop Kitchen,5.0,1089.0,+52 55 8660 0500,http://www.sofitel-mexico-city.com/restaurants/cityzen-rooftop/,19.428486,-99.166,"Mexicana, Fusión",4.5,4.5,4.0,
20,21,Almara,5.0,694.0,+525252301766,http://www.almara.rest,19.424809,-99.16803,Mediterránea,4.5,4.5,4.5,
21,22,Chambao Polanco,5.0,462.0,+52 55 8967 6071,http://chambaorestaurant.com/es/polanco/restaurante-de-carnes-en-polanco,19.431862,-99.20141,"Churrasquería, Mariscos, Internacional, Parrilla, Bar",4.0,4.5,3.5,
22,23,Salute Food & Bar,4.5,1197.0,+52 55 5540 0686,http://www.grupobgm.com.mx,19.423998,-99.07838,"Mexicana, Bar, Saludable",4.0,4.0,3.5,
23,24,Mochomos,4.5,472.0,+52 55 5919 4212,http://mochomos.mx,19.429089,-99.216774,Mexicana,4.5,4.0,4.0,
24,25,Ryoshi Masaryk,5.0,501.0,+52 55 8848 0754,http://www.ryoshi.mx/,19.431684,-99.18634,"Japonesa, Sushi, Asiática, Saludable, Internacional, Fusión japonesa",4.5,4.5,4.0,
25,26,Pubbelly Masaryk,4.5,430.0,+52 55 5281 4051,http://pubbelly.mx/,19.431568,-99.19219,"Sushi, Japonesa",4.5,4.0,4.0,
26,27,Harry's Polanco,4.5,1189.0,+52 55 5255 0087,http://harrys.com.mx/,19.431606,-99.186584,"Churrasquería, Mariscos, Delicatessen, Contemporánea, Saludable",4.5,4.5,4.0,4.5
27,28,Dalis pizzeria italiana,5.0,330.0,+52 55 5086 5051,http://www.facebook.com/DALIS-Pizzeria-Italiana-175947072830562/,19.433023,-99.12629,"Italiana, Pizzería, Europea",5.0,5.0,5.0,
28,29,Sonora Grill Reforma,4.5,1827.0,+52 55 7098 1218,http://sonoragrill.com.mx,19.43527,-99.15057,"Mexicana, Churrasquería, Parrilla",4.0,4.0,3.5,
29,30,Sonora Grill Miyana,4.5,1246.0,+52 55 7595 9016,http://sonoragrill.com.mx/reserva/?r=sg,19.524982,-99.22685,Mexicana,4.5,4.0,4.0,
30,31,Cambalache Escenaria,4.5,211.0,+52 55 5550 8737,http://www.cambalacherestaurantes.com,19.33526,-99.19907,"Argentina, Bar, Internacional, Parrilla, Contemporánea, Pub",4.0,4.5,3.5,
31,32,CúA Culinary Artisans Restaurant,5.0,175.0,+52 55 5292 7272,http://www.espanol.marriott.com/hotels/hotel-information/restaurant/mexsf-jw-marriott-hotel-mexico-city-santa-fe/,19.367128,-99.26046,"Mexicana, Internacional",4.5,5.0,4.0,
32,33,Porfirio's Polanco,4.5,2379.0,+52 52801494,http://porfirios.com.mx/,19.431454,-99.18996,"Mexicana, Latina, Contemporánea",4.5,4.0,4.0,4.5
33,34,Sonora Prime Santa Fe,5.0,129.0,+52 55 5206 5906,http://sonoraprime.com.mx/,19.361963,-99.26657,,4.5,4.5,4.0,
34,35,Sonora Grill Coyoacán,4.5,1691.0,+52 55 5604 1571,http://www.sonoragrill.com.mx/,19.3601,-99.171265,"Mexicana, Bar",4.5,4.5,4.0,4.0
35,36,Sonora Prime Centro Historico,5.0,200.0,+52 55 2127 8595,http://sonoraprime.com.mx/,19.434963,-99.14633,"Mexicana, Bar de vinos, Internacional",4.5,4.5,4.5,
36,37,Les Moustaches,4.5,892.0,+52 55 5533 3390,http://www.lesmoustaches.com.mx/,19.42962,-99.16569,"Francesa, Saludable, Internacional",4.5,5.0,4.5,4.5
37,38,Parilla Urbana Félix Cuevas,5.0,201.0,+52 55 5687 0533,http://parrillaurbana.com.mx/,19.37083,-99.16627,Mexicana,5.0,5.0,5.0,
38,39,Sonora Grill Prime,4.5,1355.0,+52 55 5524 3732,http://sonoraprime.com.mx/,19.368353,-99.180466,Bar de vinos,4.5,4.0,4.0,4.5
39,40,Entre Fuegos Masaryk,4.5,252.0,+52 998 688 5581,http://entrefuegos.com,19.43147,-99.19038,"Churrasquería, Parrilla",4.0,4.0,3.5,
40,41,Sonora Grill Nápoles,4.5,600.0,+52 55 1107 8136,http://www.sonoragrill.com.mx,19.388437,-99.17583,"Churrasquería, Latina",4.0,4.0,4.0,4.5
41,42,Sonora Grill Amores,4.5,282.0,+52 55 5559 5135,http://sonoragrill.com.mx/,19.378132,-99.16779,"Mexicana, Parrilla, Latina, Bar",4.5,4.5,4.0,
42,43,La Rural Argentina,4.5,233.0,+52 55 5687 1145,http://www.laruralrestaurantes.com/,19.389774,-99.17375,"Argentina, Internacional, Parrilla, Contemporánea",4.5,4.5,4.0,4.5
43,44,RosaNegra Polanco,4.5,3027.0,+52 55 5282 2603,http://rosanegra.com.mx/en/branch-offices/cdmx,19.43129,-99.19334,"Mariscos, Latina, Contemporánea",4.5,4.5,4.0,
44,45,La Vicenta Tezontle,5.0,289.0,+52 55 9129 0568,http://lavicenta.com.mx/,19.383396,-99.0803,"Churrasquería, Latina, Parrilla",4.5,4.5,4.0,
45,46,El Balcón del Zocalo,4.5,2701.0,525251305130,http://www.balcondelzocalo.com,19.434,-99.13444,"Internacional, Fusión, Mexicana, Latina",4.5,4.5,4.0,4.0
46,47,Los Danzantes Coyoacán,4.0,1014.0,+52 55 4356 7185,http://www.losdanzantes.com,19.348955,-99.163605,"Mexicana, Contemporánea",4.0,4.0,4.0,4.0
47,48,SCOLA CESSA,5.0,157.0,+52 55 8003 4403,http://www.cessa.edu.mx/scola,19.334831,-99.20609,Internacional,4.5,5.0,4.5,
48,49,Cambalache Polanco,4.5,537.0,+52 55 5280 2080,http://www.cambalacherestaurantes.com,19.431767,-99.19598,"Churrasquería, Argentina, Internacional",4.0,4.0,3.5,4.0
49,50,Asaderos Grill Polanco,4.5,362.0,+52 55 5545 8344,http://www.asaderosgrill.com.mx,19.43267,-99.1833,"Churrasquería, Parrilla, Mexicana, Bar",4.0,4.5,4.0,
50,51,Restaurante El Cardenal,4.5,6020.0,+52 55 5521 8817,http://restauranteelcardenal.com/,19.433794,-99.13515,"Mexicana, Latina",4.5,4.5,4.5,4.0
51,52,Testal,4.5,414.0,+52 55 5510 1358,http://testal.mx,19.433325,-99.14281,Mexicana,4.5,4.5,4.5,
52,53,El Cardenal San Ángel,4.5,1302.0,+52 55 5550 0293,http://www.restauranteelcardenal.com/el-cardenal-san-angel.html,19.34707,-99.188805,Mexicana,4.5,4.5,4.5,4.5
53,54,Restaurante Eloise,4.5,1058.0,+52 55 5550 1692,https://www.facebook.com/RestauranteEloise/,19.351795,-99.19049,"Francesa, Europea, Contemporánea",5.0,4.5,4.5,4.5
54,55,El Cardenal Alameda,4.5,1968.0,+52 55186632,http://www.restauranteelcardenal.com,19.435007,-99.14628,Mexicana,4.5,4.5,4.5,4.0
55,56,Sonora Grill Prime Masaryk,4.5,602.0,+52 55 5280 7328,http://sonoraprime.com.mx/,19.43182,-99.19652,"Mexicana, Internacional",4.5,4.0,4.0,5.0
56,57,The Capital Grille,4.5,586.0,+52 55 5207 8358,http://www.thecapitalgrille.com.mx/,19.428707,-99.16328,Estadounidense,4.5,4.5,4.0,4.5
57,58,Limosneros,4.5,1168.0,+52 55 5521 5576,http://limosneros.com.mx/,19.436218,-99.13795,"Mexicana, Latina",4.5,4.5,4.5,4.5
58,59,Agua y Sal Cebichería,4.5,1224.0,+52 55 5282 2746,http://www.aguaysal.com.mx,19.428038,-99.19245,"Mexicana, Latina, Mariscos, Saludable",4.5,4.5,4.5,4.5
59,60,Carmela Y Sal,4.5,224.0,+52 55 7600 1280,http://www.carmelaysal.mx,19.425203,-99.20354,"Mexicana, Latina",4.5,4.5,4.5,
60,61,Tostadas de Coyoacan,4.5,294.0,+52 56 41 63 89,http://coyoacan.olx.com.mx/tostadas-coyoacan-iid-24466760,19.352694,-99.16151,"Mexicana, Latina, Mariscos, Comida rápida",4.5,4.5,4.5,4.0
61,62,El Pescadito,4.5,318.0,6268 3045,https://www.facebook.com/ElPescaditoCondesaDf,19.41436,-99.17367,"Mexicana, Latina, Mariscos, Comida rápida",4.5,4.5,4.5,
62,63,Cambalache Vallejo,5.0,103.0,+52 55 5567 2209,http://www.cambalacherestaurantes.com,19.493362,-99.15983,"Latina, Argentina, Bar, Internacional, Parrilla, Contemporánea, Pub",5.0,4.5,4.0,
63,64,Anatol en Las Alcobas,4.5,315.0,+52 55 3300 3900,http://www.anatolkitchen.com,19.431673,-99.19776,Internacional,4.5,4.5,4.0,4.5
64,65,Zesta Punta,5.0,297.0,+52 55 7932 9997,https://www.zestapunta.com/,19.436838,-99.15386,"Española, Saludable",4.5,4.5,4.5,
65,66,Contramar,4.5,1570.0,+52 55 5514 9217,http://www.contramar.com.mx,19.419815,-99.167076,"Mexicana, Mariscos",4.5,4.5,4.0,4.5
66,67,Los Panchos Anzures,4.5,534.0,+52 55 5254 5390,http://lospanchos.mx,19.425352,-99.177185,"Mexicana, Latina",4.5,4.5,4.5,4.0
67,68,San Giorgio Pizzeria,5.0,64.0,525612622993,http://www.order.store/store/san-giorgio-pizzeria-roma-sur/bAco6G9kR1uEd5TmAmaYRg,19.404167,-99.16658,"Italiana, Pizzería, Saludable, Napolitana, De Campania, Siciliana, Del sur italiano",5.0,5.0,5.0,
68,69,Corazón de Maguey,4.0,767.0,+52 55 7406 8199,http://www.corazondemaguey.com,19.349573,-99.163574,Mexicana,4.0,4.0,3.5,4.0
69,70,Dulce Patria en Las Alcobas,4.5,1386.0,+52 55 3300 3999,http://marthaortiz.mx/en/restaurants/dulce-patria,19.43144,-99.19758,"Mexicana, Latina",4.5,4.5,4.0,4.5
70,71,Nudo Negro,4.5,427.0,+52 55645281,http://www.nudonegro.com,19.41571,-99.16063,Mexicana,4.5,4.5,4.5,
71,72,Casino Español,4.5,611.0,+52 55 5521 8894,http://www.cassatt.mx,19.432844,-99.13662,Española,4.5,4.5,4.0,4.5
72,73,MeroToro,4.5,521.0,55647799,http://merotoro.mx,19.409513,-99.1699,"Mexicana, Latina, Mariscos",4.5,4.5,4.0,4.0
73,74,Guzina Oaxaca,4.5,396.0,+52 55 5282 1820,http://www.guzinaoaxaca.com/,19.432257,-99.20363,"Mexicana, Latina, Contemporánea, Saludable",4.5,4.5,4.5,4.5
74,75,La Capital,4.5,622.0,+52 55 5256 5159,http://lacapitalrestaurante.com,19.409466,-99.17285,"Mexicana, Latina",4.5,4.5,4.5,4.5
75,76,El Cardenal Lomas,4.5,1362.0,5226230402,http://restauranteelcardenal.com/lomas/,19.430893,-99.20975,"Mexicana, Latina",4.5,4.5,4.5,4.5
76,77,Suntory Del Valle,4.5,723.0,+52 55 5536 9432,http://www.suntory.com.mx/,19.39278,-99.171814,"Japonesa, Mariscos, Sushi, Asiática, Saludable",4.5,4.5,4.0,4.5
77,78,Sonora Grill Prime Roma Condesa,4.5,373.0,+52 55 5207 4347,http://sonoraprime.com.mx/,19.419804,-99.16762,"Mexicana, Internacional, Bar de vinos",4.5,4.5,4.0,4.5
78,79,Danubio,4.5,733.0,5512.0912,http://www.danubio.com,19.431162,-99.14102,"Mariscos, Española, Sopas",4.5,4.5,4.5,4.0
79,80,Procer Wine and Beer,5.0,55.0,+52 55 3867 4163,http://procertogo.com,19.436876,-99.13975,"Bar de vinos, Cervecería, Bar, Pub, Restaurantes cerveceros",,,,
80,81,Quebracho Lerma,4.5,759.0,+52 55 5208 3999,http://quebracho.com.mx/,19.42805,-99.16982,"Parrillada, Churrasquería, Argentina",4.5,4.0,4.0,4.0
81,82,Casa Portuguesa,4.5,486.0,+52 55 5281 0075,http://www.casaportuguesa.rest,19.42986,-99.197296,"Mariscos, Mediterránea, Europea, Portuguesa",4.5,4.5,4.0,4.5
82,83,Nicos Mexico,4.5,631.0,+52 55 5396 7090,http://www.nicosmexico.mx,19.464958,-99.17763,"Mexicana, Latina",4.5,4.5,4.5,4.0
83,84,La Casa de Tono,4.5,1435.0,2630-1084,http://www.lacasadetono.com.mx/,19.42492,-99.165215,"Mexicana, Latina",4.5,4.5,4.5,4.0
84,85,La casa de Tono Zona Rosa,4.5,1148.0,5386-1126,http://www.lacasadetono.com.mx/movil/zonarosa.htm,19.424913,-99.16523,"Mexicana, Latina",4.5,4.5,4.5,4.0
85,86,Alfredo Di Roma,4.5,526.0,+52 55 5327 7766,http://www.alfredodiroma.rest/,19.427792,-99.19346,"Italiana, Europea, Siciliana, Del sur italiano",4.5,4.5,4.0,4.0
86,87,Lucerna Comedor,4.5,198.0,55358665,http://www.cmxcafe.com,19.429956,-99.15575,"Mexicana, Bar, Mariscos, Comida rápida",4.5,4.0,4.5,
87,88,Au Pied de Cochon,4.5,1041.0,+52 55 5327 7756,http://www.aupieddecochon.rest/,19.426945,-99.193565,"Francesa, Mariscos, Europea, Sopas, Bar de vinos",4.5,4.5,4.0,4.5
88,89,Asador Libanés,4.5,288.0,+52 55 6721 0127,http://www.asadorlibanes.com,19.388678,-99.17502,"Libanesa, Del Medio Oriente, Bar, Fusión",5.0,4.5,4.5,4.5
89,90,Villa Rica Polanco,4.5,212.0,+52 55 5281 3588,http://www.villa-rica.com/,19.430319,-99.19618,"Mexicana, Mariscos",4.5,4.5,4.0,
90,91,Bajel,5.0,75.0,+52 55 8660 0596,http://visitingmedia.com/tt8/?ttid=sofitel-mexico-city-ta#/360?group=2&tour=6&c13rl3=0&ha17=1,19.42837,-99.16602,Mexicana,4.5,4.5,4.5,
91,92,La Casa del Pastor Masaryk,4.5,371.0,+52 55 5281 2424,http://www.lacasadelpastor.com.mx/,19.431879,-99.19646,Mexicana,4.0,4.0,4.0,3.5
92,93,Blanco Colima,4.5,376.0,+52 55 5311 7527,https://www.facebook.com/blancocolima/,19.41981,-99.15999,"Mexicana, Internacional, Contemporánea",4.5,4.5,4.0,
93,94,Puerto Madero Polanco,4.5,1106.0,+52 55 5545 6098,http://www.puertomaderorestaurantes.com,19.431408,-99.18574,"Mariscos, Argentina, Internacional, Parrilla, Contemporánea",4.5,4.5,3.5,4.0
94,95,Cluny,4.5,397.0,+52 55 5550 7359,http://www.cluny.com.mx/,19.346497,-99.189445,"Francesa, Europea",4.5,4.0,4.0,4.5
95,96,Gotan Restaurante Argentino,4.5,1114.0,+52 55 5535 2136,http://www.gotan.com.mx/,19.436184,-99.15199,"Parrilla, Churrasquería, Latina, Argentina",4.5,4.5,4.5,4.5
96,97,Mumedi Cafe & Shop,4.5,278.0,+52 55 5510 8609,http://www.mumedi.mx/User,19.433275,-99.13463,"Mexicana, Café",4.5,4.0,4.0,
97,98,La Santa Gula,4.5,356.0,+52 59147001,http://www.facebook.com/lasantagula/timeline,19.354172,-99.155266,Mediterránea,4.5,4.5,4.0,4.5
98,99,Lardo,4.5,606.0,+52 55 5211 7731,http://www.lardo.mx,19.417982,-99.175156,Mediterránea,4.5,4.0,4.0,
99,100,Restaurante Antiguo San Angel Inn,4.5,2528.0,+52 55 5616 2222,http://www.sanangelinn.com/,19.349447,-99.19785,"Mexicana, Latina",4.5,4.5,4.0,4.5
100,101,Saks SAN ÁNGEL,4.5,452.0,+52 55 5616 1601,http://www.saks.com.mx/sanangel,19.34485,-99.19244,"Mexicana, Internacional, Contemporánea, Fusión",4.5,4.5,4.0,4.5
101,102,Yoshimi,4.5,335.0,+52 55 5083 1234,http://mexicocity.regency.hyatt.com,19.426996,-99.192924,"Japonesa, Sushi, Asiática",4.5,4.0,4.0,4.0
102,103,Madre Café,4.5,270.0,+52 55 5941 5026,http://madre-cafe.com/,19.417171,-99.15961,"Internacional, Saludable",4.5,4.5,4.5,
103,104,Saks Polanco,4.0,569.0,55456560,http://www.saks.com.mx/polanco,19.429508,-99.18969,"Mexicana, Internacional, Contemporánea, Fusión",4.0,4.0,4.0,4.5
104,105,Garum,4.5,153.0,+52 55 5280 2715,http://garumrestaurante.com/,19.432425,-99.203835,"Mediterránea, Española",5.0,5.0,4.5,
105,106,Sudestada DF,5.0,61.0,+52 55 8716 4512,http://www.sudestada.com.mx/,19.347652,-99.30432,"Argentina, Parrilla",5.0,5.0,5.0,
106,107,Dolce Amore,4.5,137.0,,,19.287539,-99.16687,"Pizzería, Italiana, Mediterránea",4.5,4.5,4.5,4.0
107,108,Cuerno Masaryk,4.0,448.0,+52 55 3386 8713,http://www.cuerno.com.mx,19.431633,-99.1936,Mexicana,4.0,3.5,3.5,
108,109,Mog Bistro,4.5,429.0,+52 55 5264 1629,http://www.facebook.com/Mogbistro/,19.41632,-99.15521,"Japonesa, Sushi, Asiática, Tailandesa",4.5,4.0,4.0,
109,110,Hacienda de Los Morales,4.5,1099.0,+52 55 5283 3000,http://www.haciendadelosmorales.com,19.434366,-99.20939,"Mexicana, Latina, Internacional",4.0,4.5,4.0,4.5
110,111,El Califa,4.0,683.0,+52 55 5271 7666,http://elcalifa.com.mx/,19.406378,-99.17259,"Mexicana, Latina",4.5,4.5,4.0,4.0
111,112,Villa Rica Vallejo,5.0,92.0,+52 55 2124 0020,http://www.villa-rica.com,19.48718,-99.1514,"Mariscos, Mexicana",5.0,5.0,4.5,
112,113,La Pitahaya Vegana,4.5,101.0,+52 55 1334 4541,http://lapitahayavegana.mx,19.415113,-99.15874,"Mexicana, Latina, Saludable",5.0,5.0,5.0,
113,114,La Casa de las Sirenas,4.0,602.0,,,19.435188,-99.132195,"Mexicana, Latina",4.0,4.5,4.0,4.5
114,115,Quintonil,4.5,1156.0,+52 55 5280 2680,http://www.quintonil.com/,19.43088,-99.19172,Mexicana,4.5,4.5,4.0,4.0
115,116,El Mayor Restaurante,4.0,701.0,+52 55 5704 7580,http://www.elmayor.com.mx/,19.43575,-99.13154,"Mexicana, Latina",4.0,4.0,4.0,4.5
116,117,Aitana,4.5,186.0,+52 55 9131 7268,http://www.aitanarestaurante.com,19.42501,-99.20349,"Mariscos, Fusión",4.5,4.5,4.0,
117,118,El Bajio Refoma,4.0,334.0,+52 55 5511 9124,http://carnitaselbajio.com.mx/enSucursales.html,19.428482,-99.16168,"Mexicana, Latina",4.5,4.5,4.0,4.0
118,119,Antolina,4.5,105.0,+52 55 5211 6845,http://www.antolina.mx,19.407074,-99.17312,Mexicana,4.5,4.5,4.5,
119,120,Teppan Grill,4.5,242.0,+52 55 5083 1234,http://mexicocity.regency.hyatt.com,19.42766,-99.19278,"Japonesa, Sushi, Asiática",4.0,4.5,3.5,4.5
120,121,Amaya,4.5,231.0,+52 55 5592 5571,http://www.amayamexico.com,19.431004,-99.15641,"Mexicana, Bar de vinos",4.5,4.5,4.5,
121,122,Amatista Tostadas,5.0,94.0,+52 55 6721 9023,http://tostadasamatista.com.mx/,19.35124,-99.163795,Mexicana,5.0,4.5,5.0,
122,123,Hotaru Lomas,5.0,68.0,+52 55 8022 2325,http://www.hotaru.com.mx,19.433489,-99.21198,"Japonesa, Mariscos, Sushi, Asiática, Saludable",5.0,5.0,5.0,
123,124,Villa Maria,4.0,1046.0,+52 55 5203 0306,http://www.villamaria.com.mx,19.435646,-99.19249,"Mexicana, Latina",4.0,4.0,4.0,4.5
124,125,Parrilla Urbana Santa Fe,5.0,47.0,+52 55 9220 9198,http://parrillaurbana.com.mx/,19.368134,-99.263794,"Mexicana, Parrilla",,,,
125,126,Chapulin,4.0,428.0,+52 55 5327 7789,http://www.chapulin.rest/,19.426981,-99.19357,Mexicana,4.5,4.5,4.0,4.0
126,127,Restaurante Mercaderes,4.5,372.0,+52 55 5510 2213,http://www.facebook.com/RestauranteMercaderes/,19.433987,-99.13479,Mexicana,4.5,4.5,4.0,4.5
127,128,CABANNA,4.5,223.0,+52 55 5545 2226,http://cabanna.com.mx,19.431234,-99.186935,"Mexicana, Latina, Mariscos, Internacional",4.5,4.5,4.5,
128,129,Café Nin,4.5,184.0,+52 55 5207 7065,http://Www.cafenin.com.mx,19.425413,-99.16064,Café,4.5,4.5,4.5,
129,130,Quebracho Insurgentes Sur,4.5,243.0,+52 55 5661 2208,http://quebracho.com.mx,19.362303,-99.18248,"Sudamericana, Churrasquería, Parrilla, Argentina",4.5,4.5,4.0,
130,131,Los Girasoles,4.0,553.0,+52 55 5510 0630,https://losgirasolesmexico.com/menu/,19.436018,-99.13889,,4.0,4.0,3.5,4.0
131,132,Fogo de Chão Brazilian Steakhouse,4.0,467.0,+52 52807586,http://fogodechao.com.mx/,19.431158,-99.195694,"Churrasquería, Sudamericana, Brasilera, Latina, Parrillada",4.5,4.0,4.0,
132,133,Rincon Argentino,4.0,464.0,+52 55 5254 8744,https://www.rinconargentino.mx/,19.431623,-99.18891,"Churrasquería, Latina, Argentina",4.5,4.5,4.0,4.0
133,134,Carajillo Masaryk,4.0,316.0,+52 55 5545 0202,https://carajillomx.com/,19.431175,-99.18213,"Mexicana, Contemporánea, Fusión",4.0,4.0,4.0,4.5
134,135,Restaurante Taro,4.5,133.0,5661 - 4083 4204 2326,http://www.restaurantetaro.com/,19.342909,-99.181625,"Japonesa, Sushi, Asiática",4.5,4.5,4.5,4.0
135,136,Azul Condesa,4.0,922.0,+52 55 5286 6380,http://azul.rest/,19.412897,-99.17171,Mexicana,4.5,4.0,4.0,4.5
136,137,Cafe de Tacuba,4.0,4396.0,+52 55 5518 4950,http://www.cafedetacuba.info,19.435696,-99.13759,"Mexicana, Latina",4.0,4.0,4.0,4.5
137,138,Azul Historico,4.0,2354.0,,,19.432838,-99.13624,"Mexicana, Latina",4.5,4.0,4.0,4.5
138,139,Taqueria Los Cocuyos,4.5,212.0,,http://www.facebook.com/pages/category/Grocery-Store/Taqueria-Los-cocuyos-1543322369260267/,19.430508,-99.13881,"Mexicana, Latina, Comida rápida",4.5,4.0,4.5,
139,140,Monte Cristo,4.5,168.0,+52 55 8952 4848,http://www.rmontecristo.com/,19.492064,-99.12086,"Mexicana, Latina",4.5,5.0,4.5,4.5
140,141,Entremar,4.5,232.0,55312031,http://entremar.com,19.433123,-99.18807,"Mexicana, Latina, Mariscos",4.5,4.5,4.0,3.5
141,142,Café La Pagoda,4.5,239.0,+52 55 5510 1122,http://cafelapagoda.com.mx,19.434761,-99.139534,"Mexicana, Latina, Fuente de soda",4.5,4.5,4.5,4.0
142,143,Gardela,4.5,176.0,+52 55 7591 8812,http://www.gardelarestaurante.mx/,19.419107,-99.156105,"Churrasquería, Latina, Argentina",4.5,4.0,4.0,
143,144,Lur,4.5,145.0,+52 55 5545 6802,http://www.restaurantelur.mx,19.431301,-99.18479,"Mediterránea, Española",5.0,5.0,4.5,
144,145,RULFO PARAJE LATINO,4.5,197.0,+(52)5083 1250,http://www.hyatt.com/es-ES/hotel/mexico/hyatt-regency-mexico-city/mexhr/dining,19.427168,-99.192696,Mexicana,4.0,4.0,3.5,
145,146,El Bajío,4.0,784.0,5281.8245,http://www.restauranteelbajio.com.mx,19.42733,-99.1964,Mexicana,4.5,4.0,4.0,4.0
146,147,La No. 20 Cantina,4.0,268.0,+52 55 5207 3252,http://www.cantina20.com,19.426098,-99.16725,"Mexicana, Latina, Bar, Contemporánea",4.0,4.0,4.0,4.5
147,148,Taqueria El Caifan,4.0,406.0,55122512,http://caifan.com.mx,19.435202,-99.14714,"Mexicana, Latina, Comida rápida",4.0,4.0,4.0,
148,149,Loretta Chic Bistrot,4.5,160.0,+52 55 9130 1675,http://www.loretta.rest/?fbclid=IwAR2VgV3TAwmfPtr3_h5mUPzXp5zJY1ksMVBHKzD2q8hjlmEOMwfcCYEOBl0,19.355618,-99.18986,Mediterránea,4.5,5.0,4.0,
149,150,Sonora Prime – Artz Pedregal,4.5,142.0,+52 55 5206 8165,http://sonoraprime.com.mx/,19.313154,-99.21948,"Mexicana, Bar de vinos",3.0,3.0,3.0,
150,151,Izakaya Kura,4.5,301.0,+52 55 7989 3102,https://www.facebook.com/kuraizakaya/,19.417582,-99.169876,"Japonesa, Mariscos",4.5,4.5,4.5,
151,152,China Shing,4.5,142.0,+52 55 5203 8753,http://www.chinashing.com/,19.432343,-99.1834,"China, Asiática, De Asia central",4.0,4.0,3.5,
152,153,Maison Belen,4.5,270.0,+52 55 5280 3715,http://www.instagram.com/maisonbelen/,19.429354,-99.192955,"Francesa, Café",4.5,4.0,4.0,4.0
153,154,Casa Elefante,4.5,136.0,+52 55 5250 8590,http://retaurante-casa-elefante.webnode.es/,19.43679,-99.18486,"De la India, Internacional, Contemporánea, Asiática",4.5,4.5,4.5,
154,155,La Casa de los Tacos,4.5,128.0,5554 9492,http://lacasadelostacos.com.mx/inicio.html,19.348232,-99.163284,"Mexicana, Fuente de soda, Restaurantes cerveceros",4.5,4.5,4.5,
155,156,Sanborns de los Azulejos,4.0,3741.0,55121331,http://www.sanborns.com.mx/sanborns/azulejos.asp,19.434275,-99.14031,"Mexicana, Internacional",3.5,4.0,3.5,4.0
156,157,Al Andalus,4.5,222.0,+52 55 5522 2528,http://www.facebook.com/alandalusmexico/,19.42787,-99.129196,"Libanesa, Del Medio Oriente, Árabe",4.5,4.5,4.0,4.0
157,158,Terraza,4.0,678.0,+52 55 1083 7700,http://www.restauranteterrazaciudaddemexico.com.mx/,19.432232,-99.1344,"Mexicana, Latina",4.0,4.5,4.0,4.5
158,159,La Barra de Fran,4.5,270.0,+52 55 5280 6650,http://www.labarradefran.com/,19.430632,-99.200264,"Mediterránea, Española",4.5,4.5,4.0,
159,160,Restaurante Diana - The St. Regis Mexico City,4.5,333.0,+52 55 5228 1888,http://www.stregis.com/mexicocity,19.425043,-99.17202,Mexicana,4.5,4.5,4.0,4.5
160,161,Don Toribio,4.5,150.0,+52 55109198,http://www.facebook.com/Restaurante-Don-Toribio-588243947865124,19.432816,-99.13841,"Mexicana, Latina, Sopas, Parrilla",4.5,4.5,4.5,4.5
161,162,Temporal,4.5,151.0,52115477,http://www.temporalrestaurante.com/,19.410381,-99.17296,,4.5,4.5,4.5,4.5
162,163,El Puntal del Norte,4.5,139.0,5252023489,http://www.elpuntaldelnorte.com/,19.434069,-99.212425,"Europea, Española, Mediterránea",4.5,4.5,4.0,
163,164,Auguri Kosher Trattoria,5.0,71.0,+52 1 55 4315 6555,http://www.facebook.com/augurikoshertrattoria,19.429688,-99.21117,"Italiana, Mediterránea, Contemporánea, Del norte italiano, Del sur italiano",,,,
164,165,Máximo Bistrot,4.0,861.0,+52 55 5264 4291,https://www.maximobistrot.com.mx/,19.310871,-99.25672,Internacional,4.5,4.0,4.0,4.0
165,166,Emilio,4.5,224.0,+52 55 5281 7812,http://www.emiliorest.com/,19.429914,-99.1966,"Mediterránea, Europea, Española",4.5,4.5,4.0,4.0
166,167,Rosetta,4.0,916.0,+52 55 5533 7804,https://www.facebook.com/pages/ROSETTA/312027142012,19.419859,-99.15989,,4.5,4.0,4.0,4.5
167,168,Macelleria Roma,4.0,294.0,+52 55 5574 1461,http://www.macelleria.com.mx/,19.417267,-99.15958,"Italiana, Pizzería, Mediterránea",4.5,4.0,4.5,4.5
168,169,Lorea,4.5,134.0,+52 55 2124 4590,http://www.lorea.mx,19.420206,-99.17004,"Mexicana, Internacional",4.5,5.0,4.0,
169,170,Pujol,4.5,2463.0,+52 55 5545 4111,http://www.pujol.com.mx/,19.433455,-99.185646,"Mexicana, Latina, Fusión",4.5,4.5,4.0,4.0
170,171,Asaderos Grill Reforma,4.5,158.0,+52 55 5207 4599,http://www.asaderosgrill.com.mx,19.428444,-99.16918,"Parrilla, Mexicana, Latina",4.0,4.0,4.0,
171,172,Pasillo de Humo,4.0,222.0,+52 55 5211 7263,http://www.facebook.com/pasillodehumo,19.411066,-99.17284,"Mexicana, Latina",4.5,4.0,4.0,
172,173,Bakéa,4.5,221.0,5520 7472,http://www.bakea.com.mx,19.416056,-99.22613,"Café, Francesa, Europea",4.5,4.5,4.0,4.0
173,174,Pali Pali,5.0,46.0,+52 55 7692 5962,https://palipali.mx/,19.38647,-99.17293,"Mexicana, Comida rápida, Española, Saludable, Sopas",,,,
174,175,La Posta,4.5,281.0,+52 55 5554 5538,http://www.restaurantelaposta.com.mx,19.344934,-99.15788,"Italiana, Pizzería, Mediterránea, Europea",4.5,4.5,4.5,4.0
175,176,Quebracho,4.5,171.0,+52 55 5211 7840,http://www.quebracho.com.mx,19.422207,-99.173454,"Churrasquería, Latina, Argentina",4.5,4.5,4.5,4.0
176,177,Catamundi,4.0,301.0,+52 55 5280 6681,http://catamundi.com/,19.43101,-99.19583,Bar de vinos,4.5,4.5,4.0,5.0
177,178,Morimoto,4.5,312.0,52626264,http://www.morimotomexicocity.com,19.42807,-99.1788,"Japonesa, Sushi, Asiática",4.5,4.5,4.0,4.0
178,179,La Opera Bar,4.0,677.0,+52 55 5512 8959,http://www.barlaopera.com/,19.434628,-99.13938,"Mexicana, Bar",4.0,4.0,3.5,4.5
179,180,Pan Comido,4.5,168.0,+52 55 4398 4366,http://www.elpancomido.com,19.429646,-99.17809,"Mexicana, Cervecería, Internacional, Pub, Saludable",4.5,4.0,4.0,4.0
180,181,La Única,4.0,462.0,+52 55 4333 2103,http://launica.mx,19.43109,-99.1977,"Mexicana, Latina, Bar",4.0,4.0,4.0,5.0
181,182,Pali Pali Alameda,5.0,32.0,+52 55 2289 6056,http://palipali.mx/,19.436308,-99.14626,"Mexicana, Latina, Comida rápida, Española",,,,
182,183,Centro Castellano,4.0,409.0,+52 55 5518 6080,http://grupocastellano.com.mx/centro/,19.430954,-99.14004,"Mediterránea, Mariscos, Española",4.5,4.5,4.0,4.0
183,184,Kolobok Santa Maria,4.5,240.0,+52 55 5541 7085,http://www.kolobok.com.mx,19.448698,-99.1562,Rusa,4.5,4.5,4.5,4.0
184,185,Sonora Grill Mundo E,4.5,155.0,+52 55 5366 9520,http://sonoragrill.com.mx/reserva/?r=sg,19.524372,-99.22764,"Mexicana, Churrasquería, Gastropub",4.5,4.5,4.0,
185,186,Butcher & Sons,4.0,481.0,+52 55 5280 4247,http://www.butcherandsons.com/,19.430414,-99.197205,"Estadounidense, Bar",4.0,4.0,3.5,4.0
186,187,Galanga Thai Kitchen,4.0,338.0,+(52)65504492,http://adobe.ly/3EKh58N,19.415989,-99.163574,"Asiática, Tailandesa",4.5,4.0,4.5,
187,188,Cafe El Popular,4.0,620.0,+52 55 5518 6081,http://www.cafeelpopular.com.mx/,19.434126,-99.13545,"Mexicana, Latina, Café",4.0,4.0,4.0,3.5
188,189,Nobu Arcos,4.0,324.0,+52 55 9135 0062,http://www.nobu.mx,19.38634,-99.25266,Japonesa,4.5,4.5,3.5,4.5
189,190,Salon Corona,4.0,502.0,+52 55 5512 5725,http://www.saloncorona.com.mx/,19.43359,-99.13829,"Mexicana, Comida rápida",4.0,4.0,4.0,4.0
190,191,Fonda 99.99,4.5,213.0,+52 55 5559 8762,http://www.facebook.com/pages/Fonda-9999/137912503080143,19.375418,-99.17362,"Mexicana, Latina",4.5,4.0,4.5,3.5
191,192,Nueve Nueve,4.0,237.0,+52 55 5525 9795,http://www.nuevenueve.com.mx,19.418682,-99.15939,"Mexicana, Latina",4.0,4.5,4.0,4.5
192,193,Fonda Fina,4.0,256.0,+52 55 5208 3925,http://www.fondafina.com.mx/,19.418211,-99.166145,"Mexicana, Latina",4.5,4.0,4.0,
193,194,Zanaya,4.5,252.0,+52 55 5230 1818,http://www.zanaya.mx/,19.423168,-99.174446,"Mexicana, Latina, Mariscos, Parrilla, Saludable",4.5,4.5,4.0,
194,195,Nagaoka,4.5,252.0,+52 55 5543 9530,http://www.nagaoka.com.mx/,19.391684,-99.17476,"Japonesa, Sushi",4.5,4.0,4.5,4.0
195,196,The Palm Restaurant - Polanco,4.5,289.0,+52 55 5327 7762,http://www.thepalm.com.mx,19.427225,-99.19377,"Estadounidense, Churrasquería",4.0,4.5,3.5,4.0
196,197,La Vie en Rose,4.5,243.0,+52 55 4948 2356,http://www.facebook.com/lavieenrosecdmx/,19.416838,-99.16813,"Francesa, Europea",4.5,4.5,4.5,4.5
197,198,P.F. Chang's,4.0,532.0,55334859,http://www.pfchangsmexico.com.mx/,19.429264,-99.16221,"China, Sushi, Asiática",4.0,4.0,3.5,4.0
198,199,Alverre Café & Bistró,4.5,151.0,+52 55 2183 7445,http://mesalibre.com.mx/alverre,19.351797,-99.1591,"Café, Mexicana, Internacional, Fuente de soda",4.5,4.0,4.0,4.0
199,200,Restaurante Catedral,4.5,58.0,+52 55 5518 5232,http://www.hotelcatedral.com/index.html,19.43587,-99.1331,"Mexicana, Bar, Café, Parrilla",5.0,4.5,5.0,
200,201,Revelation,5.0,42.0,+52 55 2109 5367,http://costeno.com/conceptos/,19.3862,-99.25284,Mexicana,,,,
201,202,Passport Condesa,5.0,39.0,+52 55 6519 7853,http://passport.cafe/,19.405767,-99.171585,"Café, Contemporánea",5.0,5.0,5.0,
202,203,La Buena Barra CDMX,4.0,645.0,+52 55 5280 6699,http://www.labuenabarra.com.mx,19.431696,-99.19366,"Mexicana, Latina",4.0,4.0,3.5,4.5
203,204,La Hosteria de Santo Domingo,4.0,597.0,55265276,,19.43793,-99.13507,"Mexicana, Latina",4.0,4.0,4.0,4.0
204,205,Casa Churra,4.0,228.0,5255103435,http://casachurra.com.mx,19.432537,-99.139084,"Mexicana, Latina",4.0,4.0,4.0,4.0
205,206,Restaurante Villa Maria,4.5,138.0,+52 55 2591 0727,http://www.villamaria.com.mx,19.364967,-99.262314,"Mexicana, Latina",4.5,4.5,4.0,
206,207,Cantina 20 | Santa Fe,4.0,224.0,+52 55 2167 8378,http://santafe.lano20.com.mx/,19.360662,-99.275665,"Mexicana, Latina, Bar",4.0,4.0,3.5,
207,208,Fifty Mils - Four Seasons Mexico,4.5,135.0,+52 55 5230 1806,http://www.fiftymils.com/index.html,19.422878,-99.17421,Bar,4.5,5.0,4.5,
208,209,Lalo!,4.0,358.0,+52 55 5564 3388,http://www.eat-lalo.com,19.415344,-99.1623,"Mexicana, Latina",4.5,4.0,3.5,
209,210,Nutra Happy,5.0,43.0,+52 55 7162 1978,http://www.nutrahappy.green,19.34284,-99.15172,"Saludable, Café",,,,
210,211,El Huequito,4.5,161.0,+52 55 5518 3313,http://www.elhuequito.com.mx/,19.430431,-99.1428,Mexicana,4.5,4.5,4.5,3.5
211,212,El Hidalguense,4.5,193.0,+52 55 5564 0538,http://www.facebook.com/pages/El-Hidalguense/205823096587071,19.409798,-99.16522,"Mexicana, Latina, Parrillada",4.5,4.5,4.5,
212,213,Coox Hanal,4.5,160.0,055 5709 3613,http://www.cooxhanal.com,19.42825,-99.13714,"Mexicana, Latina",4.5,4.0,4.5,4.0
213,214,La Totoaba,5.0,32.0,+52 55 8374 0278,,19.414642,-99.170235,"Mexicana, Mariscos, Parrillada, Bar, Pub",,,,
214,215,Kolobok Universidad,4.5,209.0,+52 55 5604 4091,http://www.Kolobok.com.mx,19.38139,-99.15764,"Europea, Rusa",4.5,4.5,4.5,4.0
215,216,Pinche Gringo BBQ,4.0,327.0,+52 55 6389 1129,http://pgbbq.mx/,19.39313,-99.15219,"Estadounidense, Comida rápida, Parrillada, Bar, Pub",4.0,4.0,3.5,4.0
216,217,Gruta Ehden - Florida,4.5,96.0,+52 55 5661 1994,http://www.grutaehden.com.mx,19.362509,-99.176384,"Libanesa, Del Medio Oriente, Mediterránea, Árabe",4.5,4.5,4.5,
217,218,Rojo Bistrot,4.0,278.0,52 11 37 05,http://www.rojobistrot.com,19.41445,-99.17009,"Francesa, Europea",4.0,4.0,4.0,4.0
218,219,Puerto Madero Arcos Bosques,4.5,198.0,+52 55 5259 3917,http://www.puertomaderorestaurantes.com/en/bosques-de-las-lomas,19.38712,-99.252174,"Latina, Mariscos, Argentina, Internacional, Parrilla",4.5,4.5,4.0,4.0
219,220,Tenampa,4.0,449.0,+52 55 5526 6176,http://www.salontenampa.com,19.44101,-99.13896,"Mexicana, Bar",3.5,4.0,4.0,4.5
220,221,Pizzas Nosferatu,4.5,84.0,+52 1 55 6803 1313,http://www.facebook.com/PizzasNosferatu,19.413797,-99.173,"Pizzería, Cervecería, Fusión",5.0,4.5,4.5,
221,222,Bistro Bec,4.5,162.0,+52 52809043,http://www.bistrobec.mx,19.430532,-99.19752,"Bar, Europea, Francesa, Internacional",4.5,4.0,4.0,4.5
222,223,Ivoire,4.0,428.0,+52 55 5280 0477,http://www.facebook.com/IvoirePolanco,19.429806,-99.19632,"Francesa, Europea",4.0,4.0,3.5,4.5
223,224,Attenti,4.0,215.0,+52 55 5525 9341,http://www.facebook.com/AttentiMx,19.428123,-99.16955,"Italiana, Pizzería, Mediterránea, Europea",4.5,4.5,4.0,4.0
224,225,El Califa,4.0,252.0,+52 55 5511 9426,http://www.elcalifa.com.mx/web/,19.425678,-99.169655,"Mexicana, Latina",4.0,4.0,4.0,
225,226,Orale Arepa,4.5,134.0,+52 55 9155 6133,http://oralearepa.com,19.432117,-99.18636,"Latina, Venezolana",4.5,4.5,4.5,
226,227,Tori Tori Temistocles,4.0,412.0,+52 55 5280 8067,http://www.toritori.com.mx/,19.430443,-99.19205,"Japonesa, Sushi, Asiática, Bar, Pub",4.0,4.0,3.5,4.0
227,228,Colmillo Masaryk,4.5,69.0,+52 55 6130 6257,http://colmillo.mx,,,"Mexicana, Latina, Bar, Parrillada, Española, Parrilla, Pub, Bar de vinos",5.0,4.5,4.0,
228,229,Le Petit Resto,4.5,197.0,56 11 9128,http://www.lepetitresto.com/index.html,19.385492,-99.17833,"Francesa, Europea",4.5,4.0,3.5,4.0
229,230,Sepia Cucina Italiana,4.5,93.0,+52 55 7827 9398,http://www.cocinasepia.mx,19.419813,-99.17124,,4.5,4.5,4.0,
230,231,Bellini Restaurante Giratorio,4.0,1622.0,+52 55 9000 8325,http://www.bellini.com.mx/,19.394583,-99.17403,"Italiana, Mexicana, Latina, Mariscos",3.5,4.0,3.5,4.0
231,232,Gotan Restaurante,4.5,178.0,+52 55 5512 6203,http://www.gotan.com.mx,19.434746,-99.145775,"Churrasquería, Parrilla, Argentina, Bar de vinos",4.0,4.5,4.0,
232,233,Fonda Margarita,4.5,170.0,+52 155596358,http://fondamargarita.com,19.378063,-99.17082,"Mexicana, Latina",4.5,4.0,4.5,4.0
233,234,Bonito Pop Food,4.0,320.0,+52 55 5211 4210,http://www.bonito.com.mx/nosotros.html,19.411133,-99.17279,"Mexicana, Internacional, Contemporánea, Fusión",4.5,4.0,4.0,4.5
234,235,Restaurante Arroyo,4.0,488.0,+52 55 5573 4344,http://restaurantearroyo.com.mx/,19.287512,-99.17562,Mexicana,4.0,4.0,3.5,4.5
235,236,Los Arcos Restaurant,4.0,203.0,+52 55 5616 6313,http://www.restaurantlosarcos.com/,19.33619,-99.196655,"Saludable, Mexicana, Mariscos, Internacional",4.5,4.0,4.0,3.5
236,237,Los Abanicos,4.5,66.0,+52 55 5740 2813,http://www.taqueriaelabanico.com/precios,19.41461,-99.13036,"Mexicana, Latina",5.0,4.5,4.5,
237,238,Central de Brazil Churrascaria,4.0,361.0,+52 55 5550 1713,http://www.centraldebrazil.com.mx,19.34633,-99.18953,"Churrasquería, Brasilera, Latina, Mariscos, Sudamericana",4.5,4.5,4.0,4.5
238,239,La Taberna del Leon,4.5,209.0,+52 55 5616 2110,http://www.tabernadelleon.rest/,19.339005,-99.19317,"Mexicana, Francesa",4.5,4.5,4.0,4.0
239,240,La Casa de Tono de Marina Nacional,4.5,107.0,+52 55 5260 5222,http://www.lacasadetono.com.mx,19.439928,-99.17768,"Mexicana, Latina",4.5,4.5,4.5,4.0
240,241,Hunan Reforma,4.0,274.0,+52 55 5596 0123,http://www.hunan.com.mx/,19.406006,-99.226746,"China, Asiática",4.0,4.0,3.5,4.0
241,242,Quebracho Condesa,4.5,160.0,+52 55 5211 5918,http://quebracho.com.mx/,19.411785,-99.17503,"Churrasquería, Parrilla, Argentina",4.5,4.5,4.0,3.5
242,243,Cantina La 20,4.0,466.0,+52 55 5281 3524,http://cantina20.com/,19.427658,-99.1958,"Bar, Mexicana, Latina",4.0,4.0,3.5,4.0
243,244,Angelopolitano,4.0,301.0,+52 55 6391 2121,http://angelopolitano.com,19.420303,-99.17323,"Mexicana, Latina",4.5,4.0,4.0,4.0
244,245,Bistro 83,4.0,295.0,+52 55 5616 4911,http://www.bistro83.com.mx,19.346046,-99.191216,Mexicana,4.5,4.0,4.0,4.5
245,246,Makoto,4.5,128.0,+(52)(52) 52815686,http://www.makoto.com.mx,19.427073,-99.19723,"Japonesa, Sushi, Asiática",4.5,4.5,4.0,
246,247,Taqueria Eｌ Progreso,4.5,56.0,+52 55 5592 8964,http://www.facebook.com/pages/category/Grocery-Store/Taqueria-el-progreso-100958898229038/,19.434114,-99.156204,"Mexicana, Latina, Española",5.0,4.5,5.0,
247,248,Nonna Condesa,4.0,235.0,+52 55 2978 0700,http://nonna.mx/,19.410814,-99.168015,"Italiana, Europea, Toscana, Del centro italiano",4.0,3.5,3.5,3.5
248,249,China Shing,4.5,94.0,+52 55 5635 0821,http://www.chinashing.com/,19.347748,-99.23264,"China, Asiática",4.5,4.5,4.0,
249,250,Soul La Roma,4.5,138.0,+52 55 7155 1299,http://www.facebook.com/SoulLaRoma,19.419659,-99.15759,,4.5,4.5,4.0,
250,251,Loma Linda Plaza Carso,4.0,313.0,+52 55 5520 8140,http://lomalinda.com.mx/reservaciones/,19.440886,-99.20418,"Argentina, Churrasquería",4.0,4.0,3.5,4.0
251,252,Sud 777,4.0,518.0,+52 55 5568 4777,http://www.sud777.com.mx/,19.308851,-99.20916,"Mexicana, Internacional",4.0,4.0,3.5,4.5
252,253,Macarella,5.0,26.0,+52 55 5925 7244,http://macarella.mx/,19.429092,-99.21682,"Italiana, Mediterránea, Española",,,,
253,254,El Tizoncito,4.0,349.0,+52 55 5286 2117,http://www.eltizoncito.com.mx/,19.409966,-99.1751,"Mexicana, Latina, Comida rápida",4.5,4.0,4.0,4.0
254,255,Gruta Ehden - Polanco,4.0,146.0,55450755,http://www.grutaehden.com.mx/,19.362602,-99.17629,"Libanesa, Del Medio Oriente, Árabe",4.0,4.0,4.0,4.5
255,256,Estoril Polanco,4.5,138.0,+52 55 5280 3414,http://www.estoril.rest/,19.427776,-99.19651,"Francesa, Contemporánea, Fusión, Saludable",4.5,4.5,4.0,4.0
256,257,Central Central,4.0,329.0,+52 55 5292 3106,http://www.centralcentral.com.mx,19.365055,-99.25877,"Europea, Española",4.0,4.0,3.5,4.5
257,258,Casa D'Amico,4.5,126.0,+52 55 5025 2787,http://www.damico.com.mx,19.435358,-99.18791,"Italiana, Mediterránea",4.0,4.0,3.5,4.0
258,259,Karisma,4.0,172.0,+52 55 5280 1872,http://www.facebook.com/pages/Karisma-Bar-Polanco-Mexico-City/248802081820930,19.427975,-99.19352,"Mexicana, Latina, Bar",4.0,4.0,4.0,4.0
259,260,Cambalache Insurgentes,4.0,336.0,+52 55 5534 5858,http://www.cambalacherestaurantes.com/en/,19.3711,-99.17965,"Argentina, Bar, Internacional, Parrilla, Contemporánea, Pub",4.5,4.5,3.5,4.0
260,261,Lampuga Polanco,4.0,193.0,+52 55 5280 2166,http://www.lampuga.mx/,19.430843,-99.198,"Mariscos, Mediterránea",4.5,4.5,4.0,4.5
261,262,Los Canarios,4.0,184.0,+52 55 5229 1200,http://loscanarios.com.mx/marquis-reforma/,19.42461,-99.17322,"Mexicana, Latina, Internacional",4.0,4.0,4.0,
262,263,Bellopuerto Polanco,4.0,147.0,+52 55 5281 0980,http://www.bellopuerto.com/,19.430437,-99.19659,"Mariscos, Mexicana",4.0,4.0,3.5,4.0
263,264,Don Asado,4.0,418.0,+52 55 5286 0789,http://www.donasado.com.mx/reforma,19.427437,-99.17092,"Churrasquería, Latina, Sudamericana",4.0,4.0,4.0,4.0
264,265,De Costa A Costa Nápoles,4.5,146.0,56693600,http://www.decostaacosta.com.mx,19.39523,-99.17459,"Mariscos, Bar, Internacional, Pub",4.5,4.0,4.5,4.0
265,266,Casa Virginia,4.5,197.0,52-07-18-13,http://WWW.casavirginia.mx,19.41726,-99.16403,Internacional,4.5,4.0,4.0,4.0
266,267,La Vaka Las Antenas,4.5,83.0,+52 55 5038 3693,http://www.lavaka.mx,19.314337,-99.0768,,4.5,4.0,4.5,
267,268,Puerto Madero San Angel,4.0,188.0,+52 55 5550 3535,http://www.puertomaderorestaurantes.com/#san-angel,19.347397,-99.188614,"Mariscos, Argentina, Bar, Internacional, Pub",4.5,4.5,4.0,4.5
268,269,Cantina La Imperial,4.0,181.0,+52 55 4976 0336,http://www.laimperialcantina.com,19.441683,-99.2038,"Mexicana, Bar",4.0,4.5,4.0,4.0
269,270,Blossom,4.0,168.0,+52 55 5523 8516,http://www.restaurante-blossom.com/,19.393715,-99.17051,"China, Asiática",4.0,4.0,3.5,4.0
270,271,Loma Linda,4.0,382.0,+52 55 5520 0024,http://lomalinda.com.mx,19.420172,-99.21809,"Argentina, Churrasquería",4.0,4.0,3.5,4.0
271,272,Hunan San Angel,4.0,229.0,+52 55 5661 6414,http://www.hunan.com.mx/,19.350834,-99.18703,"China, Asiática, Fusión",4.0,4.5,3.5,4.0
272,273,La Casa del Pastor Oasis,4.5,77.0,+52 55 5554 9065,http://www.lacasadelpastor.com.mx/,19.344902,-99.17968,"Mexicana, Latina, Española",4.5,5.0,4.5,
273,274,Maison de Famille,4.0,171.0,+52 55252546,http://maisondefamille.mx,19.419798,-99.15922,"Europea, Francesa",4.0,4.0,4.0,4.0
274,275,Restaurante Cedrón,4.0,341.0,+52 55 7586 8517,http://cedron.mx/,19.41678,-99.175446,"Francesa, Fusión, Internacional",4.5,4.5,4.0,
275,276,Restaurante La Polar,4.0,224.0,+52 55 5546 5066,http://www.lapolar.com.mx,19.438917,-99.16781,"Mexicana, Latina",4.0,4.0,4.0,4.0
276,277,Restaurantre 5M,4.5,78.0,+52 222 231 7788,http://www.restaurante5m.com,19.434778,-99.13985,"Mexicana, Latina, Internacional, Contemporánea",4.0,4.5,4.5,
277,278,Cancino Cibeles.,4.0,216.0,+52 1 55 6414 0655,http://archipielagocorp.com/,19.42024,-99.16673,"Italiana, Pizzería",4.5,4.0,4.0,
278,279,Asaderos Grill Plaza Carso,5.0,29.0,+52 55 9130 3288,http://www.asaderosgrill.com.mx,19.441648,-99.20391,"Mexicana, Internacional, Parrilla, Churrasquería",,,,
279,280,Meroma,4.5,132.0,+52 55 5920 2654,http://www.meroma.mx,19.420021,-99.1591,"Internacional, Contemporánea",4.5,4.5,4.5,
280,281,Cafetería El Péndulo Zona Rosa,4.0,127.0,+52 55 5208 2327,http://pendulo.com/page.php?page=Direcciones,19.426046,-99.16505,"Latina, Bar, Café, Mexicana",4.0,4.0,4.0,4.5
281,282,Restaurante Hotel Lepanto,5.0,38.0,5255462622,http://www.hotellepanto.com,19.442247,-99.14831,Mexicana,4.5,5.0,4.5,
282,283,Entre Fuegos Santa Fe,4.0,149.0,+52 55 2162 0753,http://www.entrefuegos.com,19.35815,-99.276665,"Churrasquería, Parrilla",4.0,4.5,3.5,
283,284,Cafebrería El Pendulo Condesa,4.0,256.0,+52 55 5286 9493,http://www.pendulo.com,19.410458,-99.17286,"Café, Mexicana",4.0,4.0,4.0,4.5
284,285,Sartoria,4.0,171.0,+52 55 7265 3616,http://www.sartoria.mx/,19.421902,-99.16054,"Mexicana, Italiana",4.5,4.5,4.0,
285,286,Cafebrería El Péndulo Roma.,4.5,124.0,55747034,http://pendulo.com,19.418386,-99.158745,Café,4.5,4.5,4.5,
286,287,Torre de Castilla,4.0,222.0,+52 55 5281 0907,http://grupocastellano.com.mx/torre-castilla/,19.433002,-99.20684,Española,4.0,4.5,3.5,4.0
287,288,Beef bar,4.0,182.0,5263-8895,http://www.caminoreal.com/Micrositio/Restaurante.php?id=186,19.428095,-99.17861,Churrasquería,4.0,4.0,3.5,4.0
288,289,IL Becco - Four Seasons Mexico City,4.0,178.0,+52 55 5230 1836,http://www.ilbecco.mx,19.423573,-99.174515,"Italiana, Mediterránea, Europea",4.0,4.0,3.5,4.5
289,290,Frutos Prohibidos ARTZ,5.0,24.0,+52 55 5929 3343,http://www.frutosprohibidos.com/,19.3161,-99.22091,"Saludable, Mexicana, Sopas",,,,
290,291,La Bikina México,5.0,38.0,+52 55 6784 2620,http://www.labikinamexico.mx/,19.43127,-99.18803,"Mexicana, Latina, Española, Contemporánea",4.5,4.5,4.5,
291,292,Nobu Polanco,4.5,138.0,+52 55 5280 2945,https://www.nobu.mx/ubicaciones,19.430632,-99.19782,"Japonesa, Mariscos, Sushi, Asiática",4.0,4.5,3.5,
292,293,Morton's The Steakhouse,4.5,185.0,+52 55 5540 7897,http://www.mortons.com/,19.430084,-99.211426,"Estadounidense, Churrasquería",4.5,4.5,3.5,4.0
293,294,Centro Asturiano de México SC,4.5,111.0,+52 55 5280 0266,http://www.cassatt.mx/restaurante-polanco.html,19.427301,-99.19188,"Española, Europea",4.5,4.5,4.0,4.0
294,295,Texas Ribs Buenavista,4.0,177.0,+52 55 5541 0712,http://www.texasribs.com.mx/,19.450983,-99.15141,Estadounidense,4.0,4.0,4.0,
295,296,Expendio Del Maiz Sin Nombre,5.0,30.0,+52 55 2498 9964,http://www.expendiodemaiz.com/,19.414066,-99.162796,Mexicana,5.0,5.0,5.0,
296,297,La Loggia Ristorante Pizzeria,4.0,303.0,+52 52804807,http://www.laloggia.mx,19.429241,-99.19386,"Italiana, Pizzería, Mediterránea, Europea",4.0,4.0,4.0,4.5
297,298,Restaurante Puerto Getaria,4.5,93.0,5536 4434,http://www.restaurantepuertogetaria.com.mx,19.393723,-99.1755,"Europea, Española",4.5,4.5,4.0,
298,299,Bamboo Asian Cuisine MX,5.0,38.0,+52 1 55 4315 6555,http://bambooasiancuisine.com/,19.42967,-99.21115,"Japonesa, Internacional, Tailandesa, China, Sushi",,,,
299,300,Merkava,4.0,176.0,+52 55 5086 8065,http://www.merkava.mx/,19.415285,-99.16935,"Mediterránea, Del Medio Oriente, Israelí",4.5,4.0,4.0,
300,301,Texas Ribs Plaza Central,4.0,150.0,+52 55 9129 1057,http://www.texasribs.com.mx,19.378023,-99.09588,"Estadounidense, Parrillada",4.0,3.0,3.5,
301,302,Dawat Mexico,4.0,177.0,+52 55 5281 8020,http://www.resdawat.com,19.430859,-99.20301,"De la India, Asiática",4.0,3.5,3.5,3.0
302,303,Carlota,4.0,206.0,+52 55 5550 0072,http://restaurantecarlota.com/,19.345982,-99.18969,"Mexicana, Latina",4.5,4.0,3.5,
303,304,La Bodeguita del Medio,4.0,228.0,+52 55 5553 0246,http://www.labodeguitadelmedio.com.mx,19.419493,-99.17112,"Caribeña, Latina, Cubana, Centroamericana",4.0,4.0,3.5,4.0
304,305,Eno,4.0,333.0,55318300,http://www.eno.com.mx/,19.4332,-99.18557,"Mexicana, Café",4.5,4.0,4.0,4.0
305,306,Nexo Wine Bistrot,4.5,75.0,+52 55 5280 4825,http://www.nexobistrot.com,19.428204,-99.192314,"Mexicana, Contemporánea, Fusión",5.0,4.5,4.5,
306,307,El Parnita,4.0,238.0,+52 55 5264 7551,http://www.elparnita.com,19.414072,-99.16268,Mexicana,4.5,4.0,4.0,4.5
307,308,Asian Bay,4.0,238.0,+52 55 5553 4582,http://www.asian-bay.com,19.410896,-99.17476,"China, Asiática",4.5,4.0,4.0,4.5
308,309,Casa Ávila ,4.0,243.0,+52 55 4313 0287,http://www.casaavila.com.mx,19.421343,-99.07824,"Mediterránea, Española",4.0,4.5,4.0,4.0
309,310,Cantina La Imperial Santa Fe,4.0,109.0,+52 55 5292 0893,http://www.laimperialcantina.com,19.368282,-99.25922,"Mexicana, Latina",4.5,4.5,4.0,
310,311,Centenario 107,4.0,170.0,+52 55 4752 6369,http://www.centenario107.com,19.356071,-99.16338,"Bar, Pizzería, Pub",4.0,4.0,4.0,3.5
311,312,Simon's,4.0,126.0,+52 55807897,http://www.simons.com.mx/,19.436138,-99.20533,"Mexicana, Mariscos",4.5,4.5,4.0,4.5
312,313,Koku,4.0,122.0,+52 55 5207 3344,http://Kokukoku.mx,19.429686,-99.16616,Japonesa,4.5,4.0,4.5,
313,314,El Autentico Pato Manila,4.5,85.0,+52 55 5138 9611,,19.404343,-99.17033,"Mexicana, Asiática",4.5,4.5,4.0,
314,315,Oxa Cocina Única,5.0,23.0,+52 56 4157 6048,http://oxa.com.mx/reservaciones/,19.344925,-99.19261,Mexicana,5.0,5.0,5.0,
315,316,Hunan Artz,4.5,82.0,+52 55 5929 3392,http://www.hunan.com.mx/,19.313856,-99.21896,"China, Asiática",5.0,4.5,4.0,
316,317,Sesame,4.0,236.0,+52 55 5207 7471,https://www.facebook.com/sesamemx,19.419756,-99.16073,"Asiática, Tailandesa",4.0,3.5,4.0,4.5
317,318,Costeñito Market,4.5,121.0,+52 1 55 4940 4086,https://www.facebook.com/CostenitoMarket/,19.43199,-99.19821,"Bar, Mariscos",4.5,4.5,4.0,5.0
318,319,Carolo ,4.0,144.0,+52 55 1664 6069,http://www.carolo.com.mx/,19.359604,-99.27849,Italiana,4.5,4.0,4.0,4.0
319,320,Matisse,4.0,259.0,+52 55 5264 5853,http://www.matisse.com.mx/ubicacion-condesa,19.411718,-99.1678,"Mexicana, Internacional",4.0,4.0,3.5,4.0
320,321,Cipriani Mexico City,4.0,283.0,+52 55 8526 1595,http://www.cipriani.com/restaurant/?loc=mexico-city,19.431587,-99.19407,Italiana,4.0,4.5,3.5,
321,322,Debarbas Bebedero Gourmet,4.5,84.0,+52 55 1107 8201,http://www.debarbas.com/,19.387854,-99.17744,"Mexicana, Bar, Pizzería",4.5,4.5,4.5,
322,323,Vegamo,4.5,79.0,+52 55 2776 4661,http://www.vegamomx.com/,19.431644,-99.146484,Mexicana,4.5,4.5,4.5,
323,324,Antigua Hacienda de Tlalpan,4.0,340.0,5655-7888,http://aht.mx,19.289055,-99.16308,"Mexicana, Latina",4.0,4.0,3.5,4.5
324,325,El Beneficio Bistrot,4.5,120.0,+52 55 1741 8979,http://www.instagram.com/el_beneficiodeladuda/,19.35342,-99.15935,"Mexicana, Café, Contemporánea, Fusión, Internacional, Bar de vinos",4.5,4.0,4.0,
325,326,La Docena Oyster Bar & Grill,4.0,582.0,+52 1 55 5208 0833,http://ladocena.com.mx/Oyster_Bar_%26_Grill/Inicio.html,19.419256,-99.15595,"Bar, Mariscos",4.0,3.5,3.5,
326,327,El Charco De Las Ranas Río Mixcoac,4.0,238.0,+52 55 5598 2279,http://elcharcodelasranasriomixcoac.com.mx,19.37074,-99.18564,"Mexicana, Latina",4.5,4.0,4.0,4.0
327,328,Sylvestre Polanco,4.0,251.0,+52 55 5281 2147,http://www.sylvestre.mx,19.430626,-99.197845,,4.0,4.0,4.0,
328,329,Carajillo Roma,4.5,65.0,+52 55 9129 3155,http://www.carajillomx.com,19.420782,-99.169685,"Mexicana, Contemporánea, Fusión",2.5,3.0,2.5,
329,330,Porco Rosso / Original K.C.B.B.Q,4.0,207.0,52644355,http://www.porcorossobbq.com/,19.415865,-99.159035,"Estadounidense, Parrillada",4.0,4.0,4.0,
330,331,El Japonez Polanco,4.0,369.0,+52 55 4434 4052,http://www.eljaponez.com/,19.43041,-99.19848,"Asiática, Fusión, Japonesa, Sushi",4.0,3.5,3.5,4.5
331,332,Mesón del Toreo (Gaona),4.5,76.0,+52 55 5395 0899,http://www.mesondeltoreo.com,19.453934,-99.21942,"Mexicana, Bar, Pub",4.5,4.5,4.0,
332,333,La Casa del Pastor Santa Fe,4.5,50.0,+52 55 5292 2854,http://www.lacasadelpastor.com.mx,19.37693,-99.255554,"Mexicana, Latina, Española",5.0,5.0,4.0,
333,334,Rodizio CDMX,4.5,90.0,+52 55 5543 8077,http://rodiziorestaurante.com,19.391993,-99.172935,"Churrasquería, Brasilera",4.5,4.5,4.0,
334,335,Mazurka,4.5,102.0,+52 55 5523 8811,http://www.restaurantemazurka.com/,19.392332,-99.177505,Polaca,4.5,5.0,4.5,4.5
335,336,Tandoor,4.0,281.0,+52 55 5545 6863,http://www.tandoor.com.mx/,19.43049,-99.178856,"De la India, Asiática, Pakistaní",4.0,4.0,4.0,4.0
336,337,El Corazón Del Mar,4.5,44.0,+52 56 1181 8190,http://www.elcorazondelmar.mx,19.389479,-99.1754,"Mariscos, Saludable, Mexicana, Comida rápida, Mediterránea, Contemporánea",4.5,4.5,4.5,
337,338,Dante Brasa Y Fuego,4.5,108.0,+52 55 2120 5007,http://dantebrasayfuego.com.mx,19.430422,-99.19999,"Churrasquería, Argentina, Internacional",4.5,4.5,4.0,
338,339,Tamayo,4.5,97.0,52112197,http://museotamayo.org/restaurante,19.425379,-99.181465,"Latina, Mexicana, Internacional, Española",4.0,4.0,4.0,
339,340,Taqueria la Onda,4.5,65.0,5520 9146,http://www.laonda.com.mx/,19.427835,-99.21137,Mexicana,4.5,4.5,4.5,
340,341,Catorze,5.0,28.0,+52 55 1560 7219,https://www.restaurantecatorze.com/,,,"Española, Mediterránea, Fuente de soda, Comedores",,,,
341,342,Xanat Bistro & Terraza,4.5,112.0,+52 55 5999 0066,https://www.marriott.com/hotels/hotel-information/restaurant/mexjw-jw-marriott-hotel-mexico-city/?scid=45f93f1b-bd77-45c9-8dab-83b6a417f6fe&y_source=1_Mzk5ODY4Ny03NjktbG9jYXRpb24ud2Vic2l0ZQ%3D%3D,19.427427,-99.19495,Mexicana,4.5,4.5,4.5,4.5
342,343,El Gran León de Oro,4.0,108.0,5598-9265,http://www.elgranleondeoro.com.mx/contacto,19.365108,-99.1828,"Mexicana, Internacional",4.5,4.5,4.0,4.0
343,344,Jaleo Bar de Tapas,4.0,158.0,+52 55 5281 8970,http://www.jaleo.mx/,19.429981,-99.19755,"Bar, Europea, Española, Mediterránea",4.5,4.0,4.0,4.0
344,345,El Jamil,4.5,162.0,5564-9486,http://eljamil.mx,19.41423,-99.16685,"Libanesa, Del Medio Oriente, Mediterránea",4.5,4.0,3.5,4.0
345,346,Frutos Prohibidos Pedregal,5.0,21.0,5255204388,http://frutosprohibidos.com/,19.42426,-99.20347,Mexicana,,,,
346,347,Cantina La Coyoacana,4.0,340.0,+52 55 5658 5337,http://lacoyoacana.com,19.349104,-99.16142,"Mexicana, Latina, Bar",4.5,4.0,4.0,4.5
347,348,Aborigen,5.0,51.0,+52 55 7160 4086,https://www.facebook.com/aborigenrestobar/,19.414196,-99.15855,"Bar, Pizzería, Café, Contemporánea",4.5,4.5,4.5,
348,349,Casa Bell - Zona Rosa,4.0,115.0,+52 55 5208 4290,http://www.bellinghausen.mx/casabell,19.425108,-99.16959,"Mexicana, Internacional",4.0,4.5,3.5,4.5
349,350,Restaurante Domingo Santo,4.5,85.0,+52 55 5130 3082,http://www.domingosanto.com/restaurante.html,19.436947,-99.1341,"Mexicana, Contemporánea",4.5,4.5,4.0,
350,351,Shu,4.0,138.0,+52 55 5292 4834,http://www.shu.com.mx/,19.365189,-99.26256,"Japonesa, Internacional, Fusión",4.5,4.0,3.5,4.0
351,352,DOLCE MEXICO,4.5,57.0,+52 55 1164 1164,http://www.dolcemexico.com,19.395885,-99.17446,"Italiana, Mexicana",4.5,5.0,4.5,
352,353,Cafe Torino Sante Fe,4.0,215.0,52922486,https://www.facebook.com/pages/Caf%C3%A9-Torino-Santa-Fe/230434577010705,19.366135,-99.264786,Italiana,4.5,4.0,4.0,5.0
353,354,Prime Steak Club - Ángel De La Independencia,4.5,60.0,+52 55 9012 1564,http://primesteakclub.com.mx/,19.428015,-99.16734,Mexicana,4.5,4.5,4.0,
354,355,Fisher's Santa Fe,4.0,219.0,+52 91558479,http://www.fishers.com.mx,19.366783,-99.25955,"Mexicana, Latina, Mariscos",4.0,4.0,4.0,3.5
355,356,Kitchen 6,4.0,128.0,5264-1748,http://www.kitchen6.com.mx/condesa.html,19.411764,-99.167625,"Bar, Estadounidense, Restaurantes cerveceros",4.5,4.0,4.0,4.0
356,357,Saks Barranca,4.0,220.0,+52 55 5615 1500,http://www.saks.com.mx/barranca,19.362787,-99.182655,"Mexicana, Internacional, Contemporánea, Fusión",4.0,4.0,3.5,4.5
357,358,Michoacanissimo,4.5,82.0,54215576,http://www.michoacanisimo.com/contacto.html,19.312061,-99.16144,"Mexicana, Latina, Bar, Española, Pub",4.5,4.0,4.5,
358,359,Estiatorio Mythos,4.0,200.0,+52 52821323,http://www.estiatoriomythos.com,19.429497,-99.19362,"Mediterránea, Griega, Parrilla, Saludable",4.0,4.0,3.5,4.0
359,360,Terrace at Downtown Mexico,4.0,115.0,+52 55 5130 6830,http://www.downtownmexico.com/,19.432865,-99.136246,"Bar, Mexicana, Internacional, Pub",4.0,4.0,4.0,5.0
360,361,Market Kitchen,4.0,164.0,+52 55 4090 5002,http://www.marketkitchendf.com/en/,19.365143,-99.25867,Fusión,4.0,4.5,4.0,
361,362,Huset,4.0,313.0,+52 55 5511 6767,http://www.huset.mx/,19.418987,-99.16375,"Parrillada, Mexicana, Parrilla",4.0,4.0,3.5,
362,363,Por Siempre Vegana Taqueria,4.5,92.0,+52 55 3923 7976,https://www.facebook.com/porsiempreveganataqueria/info/?entry_point=page_nav_about_item&tab=page_info,19.411564,-99.16621,"Mexicana, Latina, Comida rápida, Comida de calle, Sudamericana, Centroamericana",4.5,4.5,4.5,
363,364,Tacontento,4.0,125.0,56601846,http://www.facebook.com/tacontento1619/,19.425533,-99.16361,"Mexicana, Latina, Comida rápida",4.0,4.0,4.5,4.0
364,365,El Sabor del Tiempo,4.0,171.0,+52 55 5523 1802,http://www.elsabordeltiempo.mx/,19.395666,-99.17249,"Mexicana, Latina",4.5,4.5,4.5,4.5
365,366,Como,4.5,91.0,,http://restaurantcomo.com/como/index.html,19.435299,-99.1932,,4.0,4.0,4.0,4.5
366,367,La Giralda,5.0,22.0,+52 55 5140 7780,http://www.la-giralda.com,19.44257,-99.15534,"Mexicana, Internacional, Contemporánea",,,,
367,368,Fogo de Chão Brazilian Steakhouse,4.0,101.0,+52 55 5292 7500,http://fogodechao.com.mx,19.364803,-99.25921,"Churrasquería, Brasilera, Sudamericana",4.5,4.5,4.5,
368,369,Alba cocina Local,5.0,41.0,+52 55 5207 3864,https://www.facebook.com/alba.cocinalocal/,19.42469,-99.16081,Mexicana,5.0,5.0,5.0,
369,370,Básico,4.5,69.0,+52 55 7095 6246,https://www.sebasico.com,19.430433,-99.19726,"Latina, Saludable, Española",5.0,5.0,5.0,
370,371,Asai Kaiseki Cuisine,4.5,49.0,+52 55 5087 2432,https://www.facebook.com/ASAI-Kaiseki-Cuisine-200220527088930/?__tn__=C-R,19.430544,-99.19888,"Sushi, Kaiseki",5.0,4.5,4.5,
371,372,Restaurante Murakami,4.0,115.0,+52 55 5203 1371,https://www.facebook.com/restaurantemurakami/,19.432066,-99.18347,"Japonesa, Sushi, Asiática",4.5,4.0,4.5,3.5
372,373,Terraza Cha Cha Chá,4.0,242.0,+52 55 5705 2272,http://www.terrazachachacha.com,19.436117,-99.152824,Bar,4.5,4.0,4.0,
373,374,Market Gourmet Cafe,4.5,57.0,+52 55 5229 1200,http://www.marquisreforma.com/restaurantes,19.424816,-99.17379,"Italiana, Mexicana, Asiática, Argentina, Sudamericana",4.5,4.5,4.5,
374,375,Savannah,4.5,92.0,+52 55 5442 8235,http://www.savannah.mx,19.403028,-99.242485,"Internacional, Parrilla",4.5,4.5,4.5,4.0
375,376,Fiebre de Malta,4.0,170.0,+52 55 5207 0491,http://www.fiebredemalta.com,19.428429,-99.16903,"Bar, Pub, Cervecería, Internacional",4.0,4.0,4.0,4.5
376,377,Le Pain Quotidien,4.0,379.0,+52 55 5280 0759,https://www.lepainquotidien.com/mx/es/locations/polanco/oscar-wilde-?y_source=1_MTA5NTAyNTctNzY5LWxvY2F0aW9uLndlYnNpdGU%3D#30?utm_source=yext&utm_medium=business-listing&utm_campaign=,19.430582,-99.19723,"Francesa, Café, Europea",4.0,4.0,3.5,4.5
377,378,Prego,4.0,164.0,+52 55 5281 0203,http://www.prego.com.mx,19.427397,-99.196556,Italiana,4.5,4.5,4.0,4.0
378,379,Vuela Carmela,5.0,26.0,+52 55 9137 3987,,19.437635,-99.07968,"Mexicana, Latina, Española",5.0,5.0,4.5,
379,380,Toro Latin Kitchen & Bar,4.5,88.0,+52 55 5292 4688,http://www.richardsandoval.com/toromexicocity/,19.364641,-99.25924,Mexicana,4.5,4.5,3.5,
380,381,Restaurantes Los Almendros Polanco,4.0,182.0,+52 55 5531 6646,http://www.losalmendros.com.mx,19.428701,-99.19091,"Mexicana, Latina",4.0,4.0,3.5,4.0
381,382,Chilakiller's,4.5,78.0,+52 55 5264 2818,http://chilakillersmenu.wixsite.com/chilakillersmenu,19.40467,-99.18471,Mexicana,4.5,4.5,4.5,4.5
382,383,La Fonda del Recuerdo,4.0,182.0,+52 55 8112 7476,http://www.fondadelrecuerdo.com,19.43515,-99.17382,"Mexicana, Latina",4.5,4.5,4.0,4.5
383,384,La Mallorquina,4.0,162.0,+52 55 6306 3416,http://mallorquina.com.mx,19.429733,-99.19528,"Mediterránea, Europea, Española",4.0,4.5,4.0,
384,385,Delirio,4.0,344.0,+52 55 5584 0870,http://www.delirio.mx,19.417341,-99.16399,,4.0,3.5,4.0,4.5
385,386,Meson Puerto Chico,4.5,97.0,+52 55 5705 6555,,19.437454,-99.155624,"Internacional, Española, Mediterránea, Europea",4.5,4.5,4.0,4.5
386,387,Yoru Handroll and Sushi Bar,4.5,56.0,+52 55 8114 8330,http://www.yoru.mx,19.41991,-99.17057,"Japonesa, Mariscos, Sushi, Asiática, Comedores",5.0,5.0,5.0,
387,388,La Barraca Valenciana,4.5,73.0,+52 55 5658 1880,http://www.labarracavalenciana.com,19.352343,-99.16355,Española,4.5,4.5,4.5,4.5
388,389,Mia Domenicca,4.0,111.0,+52 55 9130 8456,http://www.facebook.com/miadomenicca/,19.419243,-99.17066,"Mediterránea, Europea",4.5,4.5,4.0,
389,390,Aleli,4.5,58.0,+52 55 9130 7786,http://www.aleliroma.com/,19.420074,-99.170006,"Internacional, Bar, Café, Contemporánea, Pub",4.5,4.5,4.5,
390,391,Salón 16,4.5,52.0,+52 55 5510 4733,http://cantinasalon16.mx/,19.433165,-99.142876,"Mexicana, Latina, Española",4.5,4.5,4.5,
391,392,Los Dones,4.5,78.0,+52 55 5130 5300,,19.434513,-99.14622,Mexicana,4.0,4.0,3.5,
392,393,La Zaranda Miravalle,4.5,112.0,+52 55 6726 4077,http://www.archipielagocorp.com/zaranda.html,19.420172,-99.16671,"Mexicana, Mariscos, Latina",4.5,4.5,4.5,
393,394,La Pause,4.0,119.0,56586780,http://www.restaurantelapause.com/laPause/Home.html,19.34979,-99.17384,"Mexicana, Internacional",4.0,4.0,4.0,4.5
394,395,Texas Ribs Insurgentes,4.0,181.0,+52 55 5536 4202,http://www.texasribs.com.mx/restaurante1.html,19.389086,-99.173935,"Estadounidense, Parrillada",4.0,4.0,3.5,4.0
395,396,Tacos El Caminero,4.0,131.0,,http://www.tacoselcaminero.com,19.434269,-99.15466,"Mexicana, Latina, Comida rápida",4.5,4.0,4.5,
396,397,Cafebrería El Pendulo,4.0,149.0,+52 55 5280 4111,http://www.pendulo.com,19.430353,-99.195854,"Mexicana, Café",4.0,4.0,4.0,
397,398,Belmondo,4.0,183.0,62732079,http://belmondo.com.mx,19.419756,-99.157616,,4.0,3.5,4.0,4.0
398,399,Belfiore Ristorante & Pizza,4.0,126.0,+52 55 5282 0413,http://www.belfiore.mx/,19.43212,-99.20366,"Italiana, Pizzería, Mediterránea, Europea",4.5,4.5,4.0,
399,400,The Centro Restaurant,4.5,53.0,+52 55 4631 4000,http://www.marriott.com/hotels/travel/mexcy-courtyard-mexico-city-airport/,19.436975,-99.082085,"Mexicana, Latina, Española",4.5,4.5,4.0,
400,401,La Casbah,4.5,77.0,+52 55 5564 6826,http://www.facebook.com/pages/Restaurante-La-Casbah/115800428486599,19.409607,-99.16593,"Africana, Marroquí",4.5,4.0,4.0,3.5
401,402,Restaurante La Reforma Uno,4.5,60.0,+52 55 5322 1586,http://lareformaunocdmx.com/,19.351143,-99.18653,Mexicana,4.5,4.5,4.0,
402,403,Margaret Chic Kitchen,4.5,43.0,+52 55 5281 5903,http://la-perle-dasie-sttropez.eatbu.com/?lang=en,19.428143,-99.19237,,5.0,5.0,4.5,
403,404,La Tecla,4.0,143.0,+52 55 5525 4920,http://www.latecla.mx,19.420015,-99.16562,"Internacional, Fusión, Mexicana, Bar, Mariscos, Pub",4.0,4.0,4.0,4.0
404,405,Roldán 37,4.5,78.0,+52 55 5542 1951,http://www.facebook.com/Roldan37,19.428814,-99.127014,"Mexicana, Latina, Española",4.5,4.5,4.5,
405,406,Bistro Fusión,4.5,41.0,+52 55 1164 1164,http://bistrofusion.com.mx/restaurant/,19.396118,-99.17441,Mexicana,,,,
406,407,Aló,5.0,29.0,+52 55 4584 8429,http://www.aloveg.com,19.389547,-99.17545,"Saludable, Mexicana, Internacional",,,,
407,408,Puerto Prendes,4.5,58.0,+52 55 8848 1668,http://puertoprendes.com/,19.42013,-99.16516,"Mexicana, Mariscos, Internacional",4.0,3.5,3.5,
408,409,Rokai,4.0,297.0,+52 55 7826 1112,http://www.facebook.com/rokaimexico,19.428694,-99.16943,"Japonesa, Mariscos, Sushi, Asiática",4.5,3.5,3.5,4.0
409,410,El Borrego Viudo,4.0,265.0,+52 55 5516 4901,http://taqueria-el-borrego-viudo-taco-restaurant.business.site,19.399357,-99.185265,"Mexicana, Latina, Comida rápida",4.0,4.0,4.0,3.0
410,411,Carajillo Nápoles,4.5,35.0,+52 55 2598 1784,http://carajillomx.com/,19.432684,-99.13325,"Mexicana, Bar, Contemporánea, Pub, Fusión",,,,
411,412,fakc-yeah,5.0,33.0,+52 55 1857 5281,http://www.fakc-yeah.com,19.409267,-99.17244,"Comida rápida, Estadounidense, Internacional",5.0,5.0,5.0,
412,413,Broka Bistrot,4.0,171.0,+52 55 4437 4285,http://www.brokabistrot.com,19.415642,-99.16005,"Mexicana, Latina, Europea, Fusión",4.0,4.0,4.0,4.0
413,414,Potzollcalli,4.0,187.0,5521 4253,http://www.potzollcalli.com.mx/,19.434313,-99.1368,Mexicana,4.0,4.0,4.0,3.5
414,415,Como - Aristoteles,4.5,61.0,+52 55 5250 1596,http://www.restaurantcomo.com,19.435343,-99.193184,,4.5,4.5,4.0,4.5
415,416,La Bipo,4.0,143.0,54848230,https://www.facebook.com/labipo.coyoacan,19.352228,-99.16258,"Mexicana, Latina, Bar, Pub",4.5,3.5,4.0,4.0
416,417,Cantina De Dakota,4.5,30.0,+52 55 1164 1164,http://www.cantinadakota.com,19.395746,-99.174545,"Mexicana, Estadounidense, Bar, Pub, Bar de vinos",,,,
417,418,L'Entrecote,4.0,121.0,+52 55 5282 3052,http://entrecote.mx,19.4299,-99.19754,"Francesa, Europea",4.5,4.5,4.0,
418,419,La Lanterna,4.0,177.0,+52 55 5207 9969,http://www.lalanterna.com.mx,19.42413,-99.17262,"Italiana, Mediterránea, Europea",4.0,4.5,4.0,4.0
419,420,Shaka 808 Santa Fe,4.5,42.0,+52 55 2163 1077,http://shaka.mx/,19.361166,-99.278854,"Japonesa, Hawaiana, Sushi, Fusión, Saludable",5.0,5.0,5.0,
420,421,NONSOLO Centro Histórico,4.0,82.0,+(52)55120619,http://nonsolo.mx/,19.43242,-99.13761,"Italiana, Mediterránea",4.5,4.5,4.0,4.0
421,422,Romina,4.0,128.0,+52 55 4432 4432,http://www.romina.com.mx/,19.435633,-99.19308,"Italiana, Europea",4.5,4.5,4.0,4.5
422,423,La Strega,4.0,252.0,+52 55 5523 5821,http://lastrega.mx/,19.395308,-99.1725,"Mediterránea, Internacional, Italiana",4.0,4.0,3.5,4.0
423,424,Las Chalupitas,4.5,76.0,(+0155) 5515.6479,http://laschalupitas.com.mx/,19.406199,-99.17236,"Mexicana, Latina",4.5,4.0,4.5,
424,425,Gloutonnerie,4.0,122.0,+52 55 5250 3550,http://www.gloutonnerie.mx,19.429348,-99.1895,Francesa,4.0,4.5,3.5,4.0
425,426,Koma,4.5,59.0,59257230,http://www.komamx.com,19.428888,-99.21667,Española,5.0,5.0,4.5,
426,427,Restaurante Prendes,4.0,142.0,+52 55 5280 4309,http://www.prendes.mx/,19.43582,-99.2031,"Mexicana, Internacional",4.5,4.5,4.0,
427,428,Zeru Restorán,4.5,89.0,+52 55 5550 9544,http://zeru.mx/,19.351501,-99.19058,"Europea, Mediterránea, Española",4.5,5.0,4.0,4.5
428,429,Piyoli Escandón,5.0,29.0,+52 55 5271 4909,http://piyoli.com/,19.400377,-99.17195,"Mexicana, Saludable",,,,
429,430,El Convite,4.5,74.0,+52 55 5601 2260,http://www.elconvite.com.mx/,19.362114,-99.1486,"Cervecería, Fusión, Francesa, Mexicana, Pub",4.5,3.5,3.5,3.5
430,431,Pizzeria Balboa,4.0,112.0,+52 55 5207 3476,http://www.facebook.com/balboapizzeria,19.429802,-99.16588,"Italiana, Pizzería",4.5,4.0,4.0,
431,432,Palominos Insurgentes,4.0,142.0,+52 55 5687 7887,http://restaurantepalominos.com/contactopalominosinsurgentes/,19.392586,-99.17403,"Mexicana, Churrasquería, Latina",4.5,4.5,4.0,3.5
432,433,La Poblanita de Tacubaya,4.0,162.0,+52 55 2614 4707,http://www.poblanita.com/index.html,19.407219,-99.18523,"Mexicana, Latina",4.5,4.0,4.5,4.0
433,434,Los Canarios Santa Fe,4.0,228.0,+52 55 3449 3938,http://loscanarios.com.mx/santa-fe/,19.365488,-99.26494,"Mexicana, Latina",4.0,4.5,3.5,4.0
434,435,Yamasan,4.0,144.0,+52 55 5211 7847,https://www.facebook.com/RamenCondesa,19.410564,-99.17486,"Japonesa, Asiática, Sopas",4.0,4.0,4.0,
435,436,Sliders Polanco,4.0,111.0,+52 55 5281 5380,http://sliders.mx/,19.430593,-99.196686,"Estadounidense, Bar",4.0,4.0,4.0,
436,437,La Mansion - Aeropuerto,3.5,371.0,25 99 13 06,http://www.lamansionmex.com,19.435646,-99.08274,Churrasquería,4.0,4.0,3.5,4.0
437,438,Raiz,4.0,126.0,+52 55 5250 0274,http://www.restauranteraiz.com,19.431986,-99.18637,Mexicana,4.5,4.0,3.5,
438,439,Solo Café,5.0,24.0,+52 55 5108 3721,http://solocafecdmx.com,19.402843,-99.27136,Internacional,,,,
439,440,Prosecco Polanco,4.0,259.0,+52 55 5281 0007,http://www.prosecco.mx,19.430555,-99.19759,"Italiana, Mediterránea, Europea, Toscana, Del centro italiano",4.0,3.5,3.5,4.5
440,441,Agapi-Mu,4.0,97.0,+52 55 5286 1384,http://www.agapimu.com.mx/,19.409529,-99.17821,Griega,4.0,4.0,3.5,4.0
441,442,Maralunga Pizza Grill & Bar,4.0,137.0,+52 55 5683 8491,http://www.maralunga.com.mx,19.332207,-99.20827,"Italiana, Mediterránea, Europea",4.0,4.0,3.5,4.5
442,443,La Trainera,4.0,155.0,+52 55 5281 1302,http://latrainera.com.mx/restaurantes/,19.427618,-99.196556,"Mariscos, Española",4.0,4.5,4.0,4.5
443,444,Puntarena,4.0,102.0,+52 55 5616 8638,http://www.puntarena.mx/,19.346472,-99.18947,"Mexicana, Mariscos",4.0,4.5,4.0,4.0
444,445,El Rincon de la Lechuza,4.0,127.0,56615911,http://www.elrincondelalechuza.com.mx/,19.348679,-99.18575,"Mexicana, Latina",4.5,4.0,4.0,3.5
445,446,Restaurante Asturiano Polanco,4.5,105.0,52806362,http://www.cassatt.mx,19.427256,-99.19197,"Española, Europea",4.0,4.0,4.0,4.0
446,447,Candela Romero,4.0,144.0,+52 55 5080 4900,http://www.candelaromero.mx,19.425797,-99.171974,"Española, Mediterránea",4.0,4.5,4.0,
447,448,Cancino Alameda,4.5,63.0,+52 55 5512 7257,http://www.archipielagomx.com,19.4362,-99.14607,"Italiana, Pizzería",4.5,4.5,4.0,
448,449,Caldos D' Leo,4.0,104.0,+52 55 5557 6760,http://www.caldosdleo.mx,19.438482,-99.208206,"Mexicana, Latina, Sopas",4.5,4.5,4.5,
449,450,TOKYO Autentico Restaurante Japones,4.0,174.0,55253975,http://www.facebook.com/Restaurante-Tokyo-170825229620577,19.42594,-99.16537,"Japonesa, Sushi, Asiática",4.5,4.0,4.0,4.0
450,451,Ouzeria,4.0,132.0,+52 55 5292 8639,https://www.facebook.com/ouzeriamx/,19.431028,-99.19595,"Mediterránea, Griega",4.0,4.0,4.0,
451,452,Costa Guadiana,4.0,116.0,+52 55 9135 0045,http://www.costaguadiana.com.mx,19.38712,-99.25212,"Mexicana, Latina, Mariscos",4.0,4.0,3.5,4.0
452,453,Licoreria Limantour,4.0,194.0,52644122,http://limantour.tv,19.418367,-99.15945,Bar,4.0,4.0,3.5,4.0
453,454,Gracias Comedor,5.0,36.0,+52 55 5663 4744,http://www.gracias.kitchen,19.418486,-99.16722,"Mexicana, Internacional, Contemporánea",,4.5,4.0,
454,455,Restaurante El Gnomo,4.5,84.0,56582144,http://www.elgnomorestaurante.com/,19.342175,-99.18358,"Mexicana, Comida rápida",4.5,4.5,4.5,4.5
455,456,Restaurante El Asado Argentino,4.0,110.0,+52 56061820,http://asadoargentino.com.mx/,19.291565,-99.174194,"Churrasquería, Argentina, Sudamericana",4.5,4.5,4.0,4.5
456,457,Frutos Prohibidos Médica Sur,5.0,17.0,+52 55 5264 5808,http://frutosprohibidos.com/,19.2964,-99.16084,Mexicana,,,,
457,458,Xel-Ha Bar,4.0,69.0,+52 55 5286 8853,http://www.facebook.com/Xel-Ha-557393331068601/,19.411602,-99.17453,"Mexicana, Sopas",4.5,4.5,4.0,4.0
458,459,Sushi Iwashi,4.5,49.0,+52 55 5801 0298,http://edokobayashi.com,19.430834,-99.20069,"Japonesa, Mariscos, Sushi, Asiática",5.0,4.0,4.5,
459,460,Café Urbano,4.0,99.0,+52 55 5327 7700,http://www.ihg.com/intercontinental/hotels/gb/en/mexico/mexha/hoteldetail,19.427294,-99.19381,,4.0,4.0,3.5,
460,461,Pizza del Perro Negro,4.0,406.0,55-33-92-40,http://www.pizzadelperronegro.com,19.416454,-99.16965,Pizzería,4.0,3.5,4.0,4.0
461,462,El Huequito,4.0,136.0,+52 55 5521 8834,http://www.elhuequito.com.mx/,19.21694,-98.99595,"Mexicana, Latina",4.5,4.0,4.0,3.5
462,463,Sal y Leña,4.0,106.0,5252926723,http://www.salylena.com.mx,19.367249,-99.25923,"Churrasquería, Mariscos, Parrilla",4.5,4.5,4.0,
463,464,Mezcaleria Mundana,5.0,33.0,+52 55 5512 6806,http://facebook.com/mezcaleriamundana,19.436283,-99.146355,"Mexicana, Latina, Española",,4.0,4.0,
464,465,China Grill,4.0,180.0,+52 55 5263 8887,http://chinagrillrestaurant.com/mexico_city,19.428102,-99.17901,"China, Internacional, Asiática",4.0,4.5,3.5,4.5
465,466,Restaurant Palominos Palmas,4.5,42.0,+52 55 7100 2460,http://www.restaurantpalominos.mx/,19.42972,-99.21116,"Mexicana, Churrasquería, Parrilla",4.0,4.5,4.0,
466,467,El Samurai,4.0,110.0,+52 55 5523 1469,http://www.facebook.com/pages/El-Samurai/171323746229285,19.394293,-99.1788,"Japonesa, Asiática, Sushi",4.5,4.0,4.0,4.0
467,468,Hilaria Gastrobar,4.5,65.0,+52 55 5512 1559,http://www.facebook.com/Hilaria.Gastrobar,19.43333,-99.13558,"Mexicana, Bar, Pub",4.5,4.5,4.5,4.5
468,469,La Matra-K Gastro Pub,4.5,78.0,+52 55359677,http://www.facebook.com/LaMatrak,19.436329,-99.152435,"Italiana, Bar, Pizzería, Española, Pub, Argentina",4.5,4.5,4.5,4.5
469,470,Adonis,4.0,123.0,+52 55 5531 6940,http://adonis.com.mx,19.435345,-99.18811,"Libanesa, Del Medio Oriente, Árabe",4.5,4.5,4.0,3.5
470,471,EL TAPEO,4.5,52.0,+(52)52078799,http://www.eltapeo.com.mx/,19.427883,-99.16326,Española,4.5,4.5,4.5,
471,472,Ave María,4.0,230.0,+52 55 5554 4170,http://avemaria.com.mx,19.348957,-99.16352,Mexicana,4.0,3.5,3.5,4.0
472,473,LA CASSEROLE,4.5,90.0,+52 55 5661 4654,,19.354418,-99.185074,"Francesa, Europea, De Europa Central",4.5,4.5,4.0,3.5
473,474,Nonsolo Polanco,4.0,217.0,+52 55 5280 9706,http://www.nonsolopastapa.com/,19.43026,-99.19664,Italiana,4.0,4.0,4.0,4.0
474,475,Patagonia,4.0,214.0,+52 52118032,http://www.parrillapatagonia.com,19.409346,-99.173584,"Parrilla, Churrasquería, Latina, Argentina",4.5,4.5,4.0,4.5
475,476,"Belforno - Focaccieria, Ristorante & Vino",4.5,30.0,+52 55 8848 6808,http://belforno.mx/,19.409239,-99.17777,"Italiana, Pizzería, Mediterránea",5.0,5.0,5.0,
476,477,El Cien,4.5,28.0,+52 55 8661 0581,https://www.facebook.com/restauranteelcien/,19.410599,-99.17471,"Española, Bar, Pub, Bar de vinos",,,,
477,478,Fisher's Nápoles,4.0,342.0,5255237980,http://www.facebook.com/grupofishers,19.389013,-99.1767,Mariscos,4.0,4.0,3.5,4.0
478,479,Tapas Guria,4.5,36.0,,http://www.guria.mx,19.43529,-99.20161,"Española, Mediterránea",,,,
479,480,El Bazar Sabado S.A.,4.5,88.0,,http://www.elbazaarsabado.com/restaurante.html,19.343987,-99.19194,Mexicana,3.5,3.5,3.5,
480,481,Villa Casona,4.5,58.0,+52 55 5598 8338,http://www.villacasona.mx,19.386353,-99.18627,Mexicana,4.5,4.0,4.5,3.5
481,482,Piloncillo y cascabel,4.5,74.0,,http://www.piloncilloycascabel.com/,19.389702,-99.15882,"Mexicana, Latina, Española",4.5,4.0,4.5,4.0
482,483,Cucara Macara,4.0,142.0,+52 55 2599 0610,http://cdmxtravel.com/es/comer/cucara-macara.html,19.435719,-99.08209,"Mexicana, Latina",4.0,4.0,3.5,4.0
483,484,Piantao,4.0,198.0,+52 55 5424 0012,http://www.piantao.com,19.296576,-99.18198,Argentina,4.5,4.5,4.0,4.5
484,485,Mercado De Coyoacan,4.5,63.0,,,19.349237,-99.16098,Mexicana,4.0,3.5,4.0,
485,486,Nana Nigiri Bar,5.0,19.0,+(52)555124578,http://www.facebook.com/nananigiribar/,19.432829,-99.13627,"Japonesa, Sushi",,,,
486,487,Goguinara,4.0,73.0,52-07-52-33,http://www.facebook.com/Goguinara-621727614519149,19.427221,-99.16419,"Churrasquería, Asiática, Coreana",4.5,4.0,4.5,
487,488,Kuh,4.5,81.0,55500181,http://hkuh.mx/,19.346153,-99.190735,"Suiza, Europea",4.5,4.5,4.0,4.5
488,489,Comedor Jacita,4.0,166.0,50866965,http://comedorjacinta.com,19.430079,-99.19609,"Mexicana, Latina",4.0,4.0,3.5,
489,490,Casa Club del Académico,4.0,154.0,+52 55 5616 1558,http://www.restaurantecasaclubdelacademico.com.mx,19.333977,-99.19688,"Mexicana, Internacional",4.0,4.0,4.0,4.5
490,491,Cantina 20 |Coyoacán,4.0,123.0,+52 55 5554 6364,http://coyoacan.lano20.com.mx/,19.344559,-99.179436,"Mexicana, Bar, Pub",4.0,3.5,3.5,
491,492,El Sella,4.5,82.0,55782001,http://www.barelsella.com.mx,19.414919,-99.153755,Española,4.5,4.5,4.0,
492,493,Deigo,4.0,155.0,+52 55 9133 1476,http://www.deigo.mx,19.377966,-99.16169,"Japonesa, Sushi, Asiática",4.5,4.0,4.0,4.0
493,494,Em Restaurante,4.5,38.0,,http://emrestaurante.com,19.371422,-99.150345,"Francesa, Mexicana, Japonesa, Internacional, Nativo estadounidense",5.0,4.5,4.5,
494,495,Cantina la Numero 1,4.0,108.0,55783010,http://lanumerouno.com.mx,19.418575,-99.154045,"Mexicana, Española",4.0,4.0,3.5,4.0
495,496,Mi Gusto Es,4.0,217.0,+52 55 5254 5678,http://www.migustoes.com.mx/,19.432175,-99.183266,"Mexicana, Mariscos",4.0,4.0,4.0,3.5
496,497,Frutos Prohibidos Roma,5.0,17.0,5252640181,http://frutosprohibidos.com/,19.41749,-99.15961,"Saludable, Mexicana",,,,
497,498,Nido,4.5,39.0,+52 55 5584 3800,https://www.facebook.com/nidorestaurantesg/,19.41285,-99.16753,Mexicana,5.0,4.5,5.0,
498,499,King Fish,4.0,83.0,+52 55 5292 7063,http://loscanarios.com.mx/king-fish-santa-fe/,19.358166,-99.27796,"Mariscos, Internacional",4.0,4.5,4.0,3.5
499,500,Yemanya,5.0,24.0,+52 1 55 8437 4050,http://yemanya.mx,19.415369,-99.1589,"Latina, Caribeña, Peruana, Española, Contemporánea, Sudamericana",4.5,5.0,4.5,
500,501,El Lago Restaurante,3.5,390.0,+52 55 5515 9585,https://www.facebook.com/RestauranteElLagoMx/,19.417368,-99.19965,,3.5,4.0,3.0,4.0
501,502,Fonda Garufa,4.0,165.0,5286.8295,http://www.garufa.rest,19.41155,-99.174706,"Italiana, Mexicana, Bar, Internacional, Pub, Bar de vinos",4.5,4.0,4.0,4.5
502,503,Rosso di Sera,4.5,46.0,+52 55 7028 9751,https://www.facebook.com/RossodiSeraMex/,19.343803,-99.15708,Italiana,4.5,4.5,4.5,
503,504,Puntarena Palmas,4.0,91.0,+52 55 5520 1723,http://www.puntarena.mx/,19.430098,-99.21061,Mariscos,4.5,4.0,4.0,
504,505,Hacienda Del Parián,4.0,71.0,+52 728 282 8245,http://www.parianeldongu.com,19.282469,-99.47272,"Mexicana, Latina",4.0,4.0,4.0,4.0
505,506,Palmares Azotea,4.0,133.0,+52 55 6845 3387,http://roma-norte.palmaresazotea.com/,19.419352,-99.16793,"Bar, Mariscos, Internacional",4.0,4.0,3.5,
506,507,Taqueria Arandas,4.5,44.0,,http://www.facebook.com/Taqueria-Arandas-108528177467641/,19.434425,-99.13563,"Mexicana, Latina",4.5,4.5,4.5,
507,508,Ristorante INTERVALLO,4.5,57.0,+52 55 5593 6616,http://ristoranteintervallo.com/,19.36428,-99.18777,"Italiana, Siciliana, Del sur italiano, Pizzería",4.5,4.5,4.5,
508,509,La Cuchara De San Sebastián,4.5,50.0,+52 55 5229 1228,http://loscanarios.com.mx/la-cuchara-de-san-sebastian/,19.424923,-99.172806,Española,4.5,5.0,4.5,
509,510,La Azotea de Barrio Alameda,4.0,82.0,+52 55 5518 5023,http://www.barrioalameda.com/,19.436304,-99.14626,"Bar, Internacional, Mexicana",4.0,4.0,4.0,
510,511,Punta Arena,4.0,136.0,+52 55 5520 1723,http://www.puntarena.mx,19.400354,-99.22773,"Mariscos, Mediterránea",4.5,4.5,4.0,4.0
511,512,Anastasia,4.5,89.0,+52 55 5550 4000,http://www.anastasia.com.mx,19.349253,-99.18938,Francesa,4.5,4.5,4.0,4.5
512,513,El Huequito,4.0,82.0,+52 55 5543 7821,http://www.elhuequito.com.mx,19.392284,-99.17926,Mexicana,4.0,4.0,4.0,
513,514,Arturo's,4.0,109.0,+52 55 5553 0403,http://www.arturos.mx/,19.43137,-99.201164,"Francesa, Europea",4.5,4.5,4.0,4.0
514,515,El Pialadero de Guadalajara,4.0,110.0,,http://www.elpialaderodeguadalajara.mx/,19.42178,-99.174355,"Mexicana, Latina",4.5,4.0,4.0,4.0
515,516,Cantina Restaurante La Ribera,4.0,78.0,+52 55 5761 8080,http://www.cantinalaribera.com.mx,19.418707,-99.15414,Mexicana,4.5,4.5,4.0,
516,517,Hosteria La Bota,4.0,119.0,+52 55 5709 9016,http://www.facebook.com/Hoster%C3%ADa-La-Bota-120099684674038,19.427084,-99.13715,"Mexicana, Bar, Española",4.0,4.0,4.0,4.5
517,518,Decrab Prado Norte,4.0,157.0,+52 55 2623 2818,http://decrab.com.mx/,19.427664,-99.21064,Mariscos,4.5,4.0,3.5,4.0
518,519,Tr3s Tonala,4.5,39.0,+52 55 5264 0929,https://www.facebook.com/3tonala/,19.41361,-99.161674,Mexicana,5.0,4.5,4.5,
519,520,King Cole Bar,4.5,86.0,+52 55 5228 1888,http://www.espanol.marriott.com/hotels/hotel-information/restaurant/details/mexxr-the-st-regis-mexico-city/6408306/,19.425158,-99.17198,"Bar, Internacional",4.5,4.5,4.5,
520,521,Filigrana,4.5,51.0,+52 55 4398 3137,http://www.filigrana.com.mx/,19.417336,-99.1739,"Mexicana, Latina, Española",4.0,4.0,3.5,
521,522,Puntarena Centro Histórico,4.0,95.0,+52 55 5510 2409,http://www.puntarena.mx,19.432789,-99.13615,"Mexicana, Mariscos",4.0,4.5,4.0,
522,523,Fisher's,4.0,195.0,+52 55 5531 6286,http://www.fishers.com.mx/,19.432816,-99.18517,"Mexicana, Mariscos, Fusión",4.0,4.0,3.5,
523,524,Bistro Arlequin,4.0,200.0,5207.5616,http://www.facebook.com/BistrotArlequin,19.428707,-99.17182,"Francesa, Europea",4.5,3.5,4.0,4.0
524,525,La Pantera Fresca,4.5,39.0,,http://lapanterafresca.com.mx,19.361027,-99.25125,,5.0,4.0,4.5,
525,526,La Gruta,4.0,131.0,+52 55 5191 9799,http://lagruta.mx,19.2223,-99.00045,Mexicana,4.0,3.5,3.5,
526,527,El Mirador de Chapultepec,4.5,84.0,+52 55 5286 2161,http://www.cantinaelmirador.com,19.419744,-99.17895,Mexicana,4.5,4.5,4.0,4.5
527,528,Texas Ribs Lomas Estrella,4.0,107.0,+52 55 9130 9991,http://www.texasribs.com.mx/,19.322117,-99.09415,Estadounidense,,,,
528,529,Un lugar de la Mancha,4.0,121.0,,http://www.lamancha.com.mx,19.432741,-99.20628,"Mexicana, Internacional",4.0,4.0,3.5,4.0
529,530,Hotaru Arcos,5.0,22.0,+52 55 2561 9780,http://costeno.com/hotaru/,19.3862,-99.25284,Japonesa,,,,
530,531,Specia,4.5,104.0,+52 55 5564 9576,http://www.specia.mx/,19.410782,-99.16791,Europea,4.5,4.5,4.0,4.0
531,532,Tres Galeones,4.5,93.0,+52 55 5419 3964,http://tresgaleones.com/,19.417515,-99.16097,"Mexicana, Latina, Mariscos, Fusión",4.5,4.5,4.0,
532,533,Fonda Argentina Isabel la Catolica,4.5,51.0,+52 55 5539 1617,http://www.fondaargentina.com,19.378588,-99.144066,Argentina,4.5,4.5,4.5,
533,534,El Caminero,4.5,55.0,+52 55 5514 9247,http://www.tacoselcaminero.com/,19.428928,-99.167885,"Mexicana, Latina",4.5,4.5,5.0,
534,535,Texas Ribs La Cúspide,4.0,96.0,+52 55 5349 3329,http://www.texasribs.com.mx/,19.44736,-99.21389,"Estadounidense, Parrillada",4.0,4.0,4.0,
535,536,The Palm,4.0,109.0,+52 55 1105 0190,http://www.thepalm.com.mx/,19.35862,-99.27783,"Estadounidense, Churrasquería",4.0,4.5,4.0,
536,537,Cantina 20 | World Trade Center,4.0,76.0,+52 55 1107 7979,https://www.facebook.com/LaNo20WTC/,19.39314,-99.17496,"Mexicana, Bar, Pub",4.0,3.5,3.5,
537,538,Bósforo,4.5,45.0,+52 55 5512 1991,http://www.facebook.com/pages/B%C3%B3sforo-Mezcaleria/280170022102134,19.433275,-99.14502,"Mexicana, Bar",4.5,4.0,4.0,
538,539,Cascabel,4.5,41.0,+52 55 5292 6216,http://www.restaurantecascabel.com/,19.363918,-99.25976,"Mexicana, Latina, Española",4.5,4.5,4.5,
539,540,Aquarelle Bistro,4.0,74.0,+52 55 7589 8819,http://www.aquarelle.mx,19.3527,-99.16355,"Francesa, Mexicana",4.0,4.0,4.0,
540,541,Parker and Lenox,4.0,100.0,+52 55 5546 6979,http://parkerandlenox.live/,19.43095,-99.15638,"Estadounidense, Bar, Internacional, Pub",4.0,4.0,3.5,
541,542,Arango Cocina de Raíces,4.0,108.0,+52 55 1844 4031,http://arangorestaurante.com/,19.43615,-99.15279,Mexicana,4.0,4.5,4.0,
542,543,La Bodega,4.0,104.0,+52 55 5525 2473,http://www.labodega.rest,19.415268,-99.16716,Mexicana,4.0,4.0,4.0,4.0
543,544,Las Tapas de San Juan,4.5,42.0,5510-4374 y 5512-7484,http://lajerseydesanjuan.blogspot.mx/,19.42991,-99.144585,Española,4.5,4.5,4.5,
544,545,Maíz Tinto,5.0,16.0,+52 55 8914 5098,http://www.maiztinto.com/,19.419416,-99.16217,"Mexicana, Mariscos, Internacional, Parrilla, Bar de vinos, Latina, Española",,,,
545,546,Aromas,4.0,133.0,+52 55 7313 9075,https://www.facebook.com/Aromascotidianos/,19.418394,-99.21541,,4.0,4.0,3.5,
546,547,Cantinetta Del Becco,4.0,162.0,+52 55 5256 3042,http://www.cantinettadelbecco.com/,19.36466,-99.259,"Italiana, Bar de vinos",4.0,4.5,3.5,4.5
547,548,El Carmen Deli,4.0,122.0,+52 55 5550 6775,http://www.facebook.com/ElCarmenDeli,19.344824,-99.19165,"Mexicana, Bar, Internacional, Pub, Fusión, Neozelandesa",4.5,4.0,4.0,
548,549,El Farolito,4.0,164.0,52502322,http://www.taqueriaselfarolito.com.mx,19.41001,-99.17951,"Mexicana, Latina, Comida rápida",4.0,4.0,4.0,3.0
549,550,Spuntino,4.0,201.0,+52 55 5280 6250,http://www.grupomalazzo.com/spuntino.html,19.42992,-99.196175,"Churrasquería, Latina, Argentina",4.0,4.0,3.5,4.0
550,551,El Rey Del Pavo,4.0,147.0,+52 55 5518 2810,http://www.elreydelpavo.com.mx,19.432789,-99.13531,"Mexicana, Internacional",4.0,4.0,3.5,
551,552,circulo del sureste,4.5,62.0,+52 55 5535 2704,http://www.circulodelsureste.com.mx,19.428894,-99.15345,"Mexicana, Latina, Española",4.5,4.5,3.5,4.0
552,553,Gaucho Grill,4.5,91.0,+52 55 5280 1638,http://gauchogrill.mx,19.429628,-99.19222,"Churrasquería, Parrillada, Delicatessen, Argentina",4.5,4.0,4.0,4.0
553,554,Blossom,4.0,66.0,+52 55 5202 2442,http://www.restaurante-blossom.com/,19.42748,-99.21894,"China, Asiática",4.0,3.5,3.5,
554,555,Canto de Sirenas,4.0,107.0,+52 55 5546 6115,http://elcantodesirenas.com/,19.439348,-99.16854,"Mexicana, Mariscos",4.5,4.5,4.5,4.0
555,556,Barro Negro,4.0,195.0,+52 55254194,http://www.barronegro.mx/,19.424173,-99.16907,"Mexicana, Latina",4.0,4.0,4.0,4.0
556,557,Barrio Sur,4.0,81.0,+52 55 5550 4716,http://www.barriosur.mx,19.348808,-99.198105,"Parrilla, Bar de vinos",4.5,4.5,4.0,
557,558,Yug,4.0,113.0,+52 55 5525 5330,http://lovegetariano.com,19.425833,-99.16861,"Mexicana, Española",4.5,4.0,4.5,3.5
558,559,Jaso Restaurant,4.0,329.0,+52 55 5545 7476,http://www.jasorestaurant.com.mx,19.432047,-99.190506,Internacional,4.5,4.0,3.5,4.5
559,560,L Osteria del Becco,4.0,153.0,5282 1059,http://www.losteriadelbecco.com/,19.432611,-99.2005,"Italiana, Europea, Bar de vinos, Mediterránea",4.0,4.0,3.5,4.0
560,561,Negroni Artz Pedregal,4.0,80.0,5259293388,http://www.negroni.mx,19.313887,-99.21905,"Italiana, Europea, Mediterránea",4.5,4.5,4.0,
561,562,Hotel Carlota,4.5,48.0,55116300,http://www.hotelcarlota.com.mx/restaurante,19.43057,-99.16357,Latina,4.5,4.5,4.0,
562,563,Bellinghausen - Londres,4.0,81.0,+52 55 5207 6149,http://www.bellinghausen.mx,19.426346,-99.16308,Internacional,4.0,4.5,4.0,4.0
563,564,Fiesole - San Angel,4.0,135.0,+52 55 5663 1913,http://fiesole.com.mx,19.35212,-99.19036,"Italiana, Pizzería",4.0,4.0,4.0,4.5
564,565,FOREVER VEGANO,4.0,142.0,+52 55 6726 0975,http://www.facebook.com/forevervegano?fref=ts,19.417334,-99.15687,"Contemporánea, Saludable, Mexicana",4.5,4.0,4.0,
565,566,Fisher's Centro,4.0,135.0,+52 55 5521 8867,http://www.fishers.com.mx/,19.430132,-99.134544,"Mexicana, Mariscos",4.0,4.0,3.5,
566,567,NOM Polanco,4.5,28.0,+52 55 8434 3888,http://www.restaurantenom.com,19.43206,-99.19553,,5.0,5.0,4.5,
567,568,Tezka,4.5,109.0,+52 55 9149 3000,http://hotelroyalreforma.com/,19.42383,-99.16432,"Europea, Española",4.5,4.0,4.0,4.0
568,569,"Restaurante Escribanos, Plaza Manuel Tolsá.",4.5,75.0,+52 55 5510 1076,http://www.facebook.com/takundalini/,19.436047,-99.13994,"Mexicana, Latina",4.5,4.5,4.0,
569,570,Tezontle Restaurante,5.0,16.0,+52 55 9129 4999,http://casadelaluz.mx/hotel-boutique-restaurante-cafeteria-centro-historico-zocalo,19.429558,-99.132996,"Mexicana, Latina, Española",,,,
570,571,La Corriente Cevicheria Nais,4.5,37.0,,http://www.pictame.com/user/lacorrientenais,19.422777,-99.16076,"Mexicana, Mariscos",4.5,4.5,4.5,
571,572,La Oveja Negra,4.5,54.0,+52 55 5541 0405,,19.451683,-99.15945,"Mexicana, Parrillada, Española",4.5,4.0,4.0,3.5
572,573,El Vilsito,4.5,49.0,+52 55 5682 7213,http://www.facebook.com/VilsitoDiamante/,19.389381,-99.15292,"Mexicana, Latina",4.5,4.0,4.5,
573,574,La Casa Del Pastor Mundo E,4.5,25.0,+52 55 7595 6470,http://www.lacasadelpastor.com.mx/,19.524984,-99.22734,Mexicana,,,,
574,575,La Aceituna,4.0,89.0,+52 55 5280 2640,https://www.facebook.com/pages/La-Aceituna/105325706258209,19.428736,-99.193954,"Europea, Española, Bar",4.0,4.5,4.0,4.5
575,576,Il Ritrovo Italian Restaurant,4.5,54.0,+52 55 5533 6449,http://www.facebook.com/ilritrovodf,19.427889,-99.16391,"Italiana, Pizzería",4.0,4.5,4.0,
576,577,La Buena Birria Mx,5.0,14.0,+52 833 849 4878,,19.409859,-99.174484,Mexicana,,,,
577,578,Don Asado,4.0,108.0,+52 55 2624 2783,http://donasado.com.mx,19.435404,-99.18841,"Churrasquería, Latina",4.0,4.0,4.0,
578,579,Hosteria de la Selva Negra,4.5,45.0,+52 55 5557 9004,http://hosteriadelaselvanegra.com,19.438524,-99.212524,"Alemana, Mexicana, Cervecería, Bar, Pub, Bar de vinos",4.5,4.0,4.5,
579,580,"BFF, Burgers, Fondue & Fries",5.0,17.0,+52 722 156 7857,,19.409782,-99.17446,"Mexicana, Comida rápida",,,,
580,581,Mexa Cocina Del Alma,5.0,15.0,+52 55 4390 4924,http://instagram.com/mexa_cocinadelalma?igshid=YmMyMTA2M2Y=,19.432684,-99.13325,"Mexicana, Latina, Española, Francesa, Asiática",,,,
581,582,Prosecco Santa Fe,4.0,101.0,+52 55 2167 8533,http://www.prosecco.mx/,19.361513,-99.27583,Italiana,4.5,4.0,4.0,
582,583,Los Canarios Odeon,4.0,139.0,+52 55 5280 2700,http://grupoloscanarios.com/los-canarios-odeon-antara/,19.438963,-99.20322,Mexicana,4.0,4.0,4.0,4.0
583,584,Casa Licha,4.5,51.0,+52 55 5539 1325,http://www.CasaLichaPozole.com,19.365469,-99.135994,,5.0,4.5,4.5,4.0
584,585,Pastelería Mallorca,4.0,75.0,+52 55 9131 7108,http://www.pasteleria-mallorca.mx/,19.421045,-99.21115,Española,4.5,4.0,4.0,
585,586,La taberna del chanclas,4.0,145.0,+52 55 5264 3997,http://www.latabernadelchanclas.com,19.40729,-99.172066,"Mexicana, Peruana, Internacional, Fusión",4.0,4.0,3.5,4.0
586,587,Olive Garden,4.0,247.0,,http://www.olivegardenmexico.com.mx/,19.428535,-99.16325,Italiana,4.0,4.0,4.0,4.0
587,588,Licorería Limantour,4.0,73.0,+52 55 5280 1299,http://www.limantour.tv,19.430393,-99.19707,Bar,3.5,4.0,3.5,
588,589,Blanco Castelar,4.0,89.0,+52 55 5027 0322,http://www.grupocarolo.com.mx/blancocastelar,19.430431,-99.19969,"Bar, Internacional, Contemporánea, Pub",4.5,4.5,4.0,
589,590,Montejo,4.0,69.0,56165851,http://lamontejo.com/,19.404856,-99.17186,"Mexicana, Bar, Latina, Española",4.5,4.5,4.5,4.5
590,591,El Regreso del Valle,4.5,58.0,+52 55 5335 1310,http://www.elregreso.com.mx/,19.373005,-99.175354,"Mexicana, Latina, Española",4.5,4.5,4.5,4.5
591,592,Caldos Riesi,4.5,41.0,+52 55 5557 6363,http://www.caldosriesi.com/,19.438454,-99.20824,"Mexicana, Café, Saludable, Sopas, De Campania, Del sur italiano",4.0,4.0,4.0,3.5
592,593,Nerea,5.0,19.0,+52 55 1857 5405,http://www.nerea.com.mx,19.409573,-99.17549,"Mexicana, Mariscos, Latina, Mediterránea",,,,
593,594,Queseriademi,4.0,64.0,+52 55 6267 6844,http://www.facebook.com/QueseriaDeMI,19.408333,-99.176025,"Café, Delicatessen",4.5,4.5,4.5,
594,595,El Cuatro 20,4.0,74.0,+52 55 5518 1226,http://www.facebook.com/www.el4veinte.com.mx,19.434795,-99.13611,"Mexicana, Latina, Bar, Pub",4.0,4.0,4.0,4.0
595,596,Los Bisquets Bisquets Obregon,4.0,195.0,5254 33 59,http://www.lbbo.com.mx/,19.28893,-99.16633,Mexicana,4.0,3.5,4.0,3.5
596,597,El Fogoncito,4.0,166.0,+52 55 5531 6497,http://fogoncito.com,19.429253,-99.17826,"Mexicana, Latina",4.0,4.5,4.5,4.0
597,598,Gin Chan,5.0,18.0,+52 55 7827 2238,http://www.ginchanmx.com,19.41723,-99.15818,"Japonesa, Sushi, Comida de calle, Asiática",,,,
598,599,Los Arcos,4.0,74.0,+52 55 5524 4200,http://www.restaurantlosarcos.com/,19.370678,-99.17997,"Mariscos, Internacional, Saludable, Mexicana, Latina, Española",4.5,4.5,4.0,
599,600,Moshi Moshi Delta,4.5,27.0,+52 55 5035 5858,http://www.moshimoshi.mx,19.402689,-99.15461,"Japonesa, Sushi, Asiática",,,,
600,601,Castizo,4.5,25.0,+52 55 1334 4620,https://www.facebook.com/castizomx/,19.40787,-99.16966,"Española, Bar, Mariscos, Mediterránea, Pub, Bar de vinos",5.0,5.0,5.0,
601,602,Los Hornillos,4.5,50.0,+52 55 5519 0232,http://www.taquerialoshornillos.com/,19.393484,-99.15012,Mexicana,4.5,4.5,4.5,4.5
602,603,Sala Gastronómica,4.5,48.0,+52 55 5256 2776,http://www.salagastronomica.mx,19.425428,-99.18615,"Mexicana, Latina",4.5,4.5,4.5,
603,604,Friends,4.0,99.0,5207-7762,http://www.50friends.mx/reforma.html,19.425835,-99.16758,"Italiana, Pizzería",4.0,4.0,4.0,
604,605,Restaurante Los Sifones,4.5,42.0,,,19.347183,-99.1501,"Mexicana, Latina, Española",4.5,4.5,4.5,
605,606,Casa Fran,4.5,66.0,5252801939,http://www.casafran.mx/,19.430483,-99.19973,"Española, Contemporánea, Europea",4.5,4.0,4.0,
606,607,Galia Chef,4.0,81.0,+52 55 5511 3949,http://galiachef.com/bistrots/,19.418419,-99.16,"Francesa, Bar de vinos, Europea",4.0,4.0,4.0,
607,608,Paris 16 Cafe,4.5,33.0,5511 0119,http://www.facebook.com/Paris16Bistro/,19.425936,-99.168945,Mexicana,5.0,5.0,5.0,
608,609,Chilpa,4.5,50.0,+52 55 5264 4976,http://chilpa.mx/index.html,19.408588,-99.16982,"Mexicana, Española",4.5,5.0,4.5,
609,610,Los Bisquets de Obregon,4.0,115.0,,http://www.lbbo.com.mx/unidades/lbboContactoGeneral.php?estado=DF&delegacion=CUAUHTEMOC,19.41871,-99.1574,"Mexicana, Latina, Café",4.0,4.0,4.0,4.0
610,611,Azul y Oro,3.5,213.0,+52 55 5622 7135,http://www.azul.rest/,19.313728,-99.185005,"Mexicana, Latina",3.5,3.5,3.0,3.5
611,612,Revolución 67,4.5,18.0,+52 55 8844 0101,,19.405493,-99.1848,"Italiana, Internacional, Española, Bar de vinos",,,,
612,613,Las Tinajas,4.5,46.0,5207.8899,http://las-tinajas.com/,19.42903,-99.17311,"Española, Bar, Pub, Bar de vinos",4.5,4.5,5.0,
613,614,La Buena Fe,4.0,117.0,+52 55 5616 5000,https://www.facebook.com/la-buena-fe-115726081772670/,19.349146,-99.19577,"Mexicana, Internacional, Española",4.5,4.0,4.0,4.0
614,615,Bellaria,4.0,105.0,2591-0522,http://www.bellaria.com.mx,19.4322,-99.20365,"Italiana, Pizzería, Mariscos",4.5,4.0,4.0,4.0
615,616,Taqueria El Abanico,5.0,24.0,,http://taqueriaelabanico.com/,19.416086,-99.14354,"Mexicana, Latina, Española",5.0,4.5,4.5,
616,617,Kolobok Napoles Restaurante ruso,5.0,17.0,+52 55 6387 4477,http://www.kolobok.com.mx/,19.390936,-99.175476,"Europea, Rusa, De Europa del Este, Ucraniana",5.0,5.0,5.0,
617,618,La Vienet,4.0,78.0,+52 55 5554 4523,http://www.facebook.com/pages/La-Vienet-coyoacan/127451010727665,19.356869,-99.16172,Mexicana,4.0,4.5,4.5,3.5
618,619,Aurora,4.0,68.0,+52 55 5531 5832,http://www.facebook.com/aurora.roma.3,19.417938,-99.16039,Italiana,4.0,4.0,4.0,
619,620,Osteria 8,4.5,93.0,+52 55 5212 2008,http://osteria8.com.mx,19.418995,-99.17531,"Italiana, Pizzería",4.5,4.5,4.5,4.0
620,621,El Diez Reforma,4.0,112.0,+52 55 5705 4621,http://www.eldiez.com.mx,19.32116,-99.06892,"Churrasquería, Argentina",4.0,4.0,4.0,4.0
621,622,Tokyo Rose,4.5,33.0,+52 55 5530 8021,http://maps.apple.com/place?address=Calle%20Xola%201604%2C%20Narvarte%20Oriente%2C%2003020%20Ciudad%20de%20M\xc3\xa9xico%2C%20DF%2C%20M\xc3\xa9xico&auid=9603476834964602695&ll=19.395725045176412%2C-99.15081471204758&q=Tokyo%20Rose,19.409752,-99.17462,"Japonesa, Sushi",4.0,3.5,4.0,
622,623,Vapiano Reforma,4.0,176.0,+52 55 9135 7023,http://mx.vapiano.com/es/inicio/,19.429058,-99.16309,"Italiana, Pizzería, Mediterránea, Europea",4.0,4.0,4.0,4.5
623,624,Comedor Mata Cantina,4.5,26.0,+52 55 5521 5568,https://www.facebook.com/cantinamata/,19.434198,-99.139366,"Mexicana, Cervecería, Pub, Gastropub, Comida de calle",,,,
624,625,La Cervecería de Barrio Alameda,3.5,152.0,+52 55 5512 2924,http://lacerveceriadebarrio.com.mx,19.434792,-99.145836,"Mexicana, Latina, Mariscos, Bar",3.5,4.0,3.5,
625,626,Taqueria Selene,4.5,36.0,+52 55 5250 9908,http://www.taqueria-selene.com,19.427114,-99.177574,"Mexicana, Latina, Comida rápida",4.5,4.5,4.5,3.0
626,627,Casa D'Italia,4.0,157.0,5286-2021,http://www.casaditalia.mx,19.418098,-99.1754,"Italiana, Mediterránea, Europea",4.5,4.0,4.0,3.5
627,628,Ahumadas y Fregonas,5.0,13.0,+52 55 5935 7621,http://www.ahumadasyfregonas.com,19.432684,-99.13325,"Mexicana, Latina, Española",,,,
628,629,Aperol Restaurante,5.0,13.0,+52 55 2952 3070,,19.412306,-99.17362,"Bar, Internacional, Contemporánea, Pub",,,,
629,630,Pozole de Moctezuma,4.5,33.0,55267448,,19.443052,-99.14009,Mexicana,5.0,4.5,4.5,
630,631,Wa Teppan & Sushi Bar - Santa Fe,4.0,61.0,+52 55 5292 9787,http://wateppan.com,19.358707,-99.277176,"Japonesa, Sushi",4.0,4.0,4.0,4.0
631,632,Debbie & Peponne,4.0,152.0,+52 55 2591 1011,http://peponne.com.mx,19.428244,-99.19183,"Delicatessen, Café, Mexicana",4.0,4.0,3.5,4.0
632,633,Septimo Osteria,4.0,81.0,+52 55 5550 0126,http://www.facebook.com/SeptimoOsteria/,19.349007,-99.19618,"Italiana, Mediterránea, Europea",4.0,4.0,3.5,
633,634,La Vineria,4.5,46.0,52119020,,19.413088,-99.17488,Europea,4.5,4.5,4.5,4.0
634,635,Pata Negra Condesa,4.0,218.0,+52 55 5211 5563,http://www.patanegra.com.mx,19.413479,-99.17214,"Bar, Pub",3.5,3.5,3.5,4.0
635,636,Galatea Panadería y Bistro,4.5,40.0,+52 55 7589 4427,http://galatea-panaderia-y-bistro.business.site,19.350895,-99.16814,"Café, Mexicana, Internacional, Saludable",4.5,3.5,4.0,
636,637,Saks Lomas,4.5,27.0,+52 55 2591 8966,https://www.saks.com.mx/saks-lomas,19.393724,-99.23935,"Mexicana, Internacional, Contemporánea, Fusión",,,,
637,638,Wallace Whisky Bar,4.0,84.0,+52 55 3455 0662,https://www.facebook.com/WallaceWhiskyBar/,19.412748,-99.17279,"Bar, Internacional, Pub",4.0,4.0,4.0,4.5
638,639,Pixza,4.5,43.0,+52 55 5207 0287,http://pixza.mx/,19.423767,-99.16528,"Mexicana, Pizzería, Comida rápida",4.5,4.5,4.5,
639,640,El Rincon Del Periban,4.5,56.0,56315062,https://www.facebook.com/pages/El-Rincon-Del-Periban/234055893298358,19.28651,-99.23972,Mexicana,4.5,4.5,4.5,4.5
640,641,Mikado,4.0,89.0,+52 55 5525 3096,http://www.facebook.com/pages/Restaurante-Mikado/174178462599858,19.426645,-99.169136,"Japonesa, Asiática",4.0,3.5,4.0,3.5
641,642,Los Tolucos,4.0,106.0,+52 55 5538 1651,http://www.facebook.com/ResturanteLosTolucos/,19.406866,-99.142586,Mexicana,4.5,4.0,4.0,4.5
642,643,Rouge Bohème,4.5,65.0,+52 55 5511 9704,http://www.facebook.com/rougeboheme/,19.42712,-99.163635,Francesa,4.5,5.0,4.5,4.5
643,644,Restaurant La Mansión Insurgentes,4.0,100.0,5536-3194,http://www.lamansion.com.mx,19.390598,-99.173164,Churrasquería,4.0,4.0,4.0,
644,645,El Balcon del Centro,4.0,60.0,5252020679,http://balcondelzocalo.com/en,19.433865,-99.13419,"Mexicana, Española",4.0,4.0,4.0,3.5
645,646,Hookah Santa Fe,4.5,56.0,+52 5252925562,http://www.hookahlounge.com.mx/wordpress/santa-fe/,19.36152,-99.277435,"Latina, Española",4.0,4.5,4.0,5.0
646,647,Biwon,4.0,73.0,,,19.425388,-99.16682,"Parrillada, Asiática, Coreana",4.0,4.5,4.0,3.0
647,648,Alfredo Di Roma Trattoria,4.0,92.0,+52 55 5327 7786,http://www.alfredodiroma.rest/alfredo-trattoria/,19.439825,-99.200775,Italiana,4.5,4.0,4.0,
648,649,Mezzo Mezzo,4.5,52.0,+52 55 5566 1018,http://panizzeria-mezzo-mezzo.negocio.site,19.431112,-99.16244,"Italiana, Pizzería",4.5,4.0,4.5,3.5
649,650,Cabrera 7,3.5,228.0,+52 55 5264 4531,http://www.facebook.com/cabrera7,19.416517,-99.15944,"Mexicana, Latina",4.0,4.0,3.5,4.5
650,651,Capri,4.0,111.0,52802908,http://www.capri1950.com/,19.43022,-99.1967,"Italiana, Europea, Mediterránea, Parrilla, Bar de vinos",4.0,4.0,3.5,4.0
651,652,El Faraon,4.0,56.0,+52 55 5514 2214,https://www.facebook.com/elfaraontaquerias,19.418936,-99.16754,"Mexicana, Latina",4.5,4.0,4.0,
652,653,Cuchilleros,4.0,70.0,+52 55 5566 3654,http://www.cuchilleroscantina.com.mx,19.433422,-99.15701,Mexicana,4.0,4.0,3.5,4.5
653,654,La Parroquia de Veracruz,4.0,185.0,+ 55 5512 1398,http://laparroquiadeveracruz.com/,19.435528,-99.13384,"Mexicana, Latina, Café",4.0,3.5,3.5,
654,655,Cochinita Country,4.5,53.0,+52 55 5605 4432,http://www.cochinitacountry.com,19.380741,-99.157684,Mexicana,4.5,4.5,4.5,
655,656,Meson Gaucho,4.5,33.0,+52 55 5207 3809,http://www.mesongaucho.com,19.425919,-99.16953,"Argentina, Sudamericana",4.5,4.5,4.5,
656,657,Tacos Manolo,4.5,46.0,+52 55 5687 5923,https://www.facebook.com/tacosmanolo1305/,19.390854,-99.156944,"Mexicana, Comida rápida",4.5,4.5,5.0,
657,658,Taqueria la Chinampa,4.0,110.0,+52 55 5207 4998,http://lachinampa.com.mx/desk,19.429363,-99.16721,"Mexicana, Latina",4.0,4.0,4.0,
658,659,Waldos,5.0,17.0,+52 55 1560 6040,http://www.eatwaldos.com,19.430681,-99.19626,"Comida rápida, Estadounidense",5.0,5.0,5.0,
659,660,Restaurant Ehden,4.5,28.0,+52 55 6423 9138,https://www.facebook.com/restaurantehden/,19.430456,-99.129234,"Libanesa, Del Medio Oriente, Mediterránea",5.0,4.5,4.5,
660,661,PF Chang's,4.0,62.0,+52 55 5604 2536,http://www.pfchangsmexico.com.mx/patio-universidad/,19.365936,-99.16721,"Asiática, China",4.5,4.5,4.0,
661,662,Casa Mila,4.5,30.0,+52 55 8951 0404,https://www.facebook.com/casa-mila-106470868173311/,19.41414,-99.16019,"Italiana, Mexicana, Libanesa, Mediterránea, Saludable",5.0,5.0,5.0,
662,663,Mexico Viejo Restaurant Bar,4.0,87.0,+52 55 5510 3748,https://www.facebook.com/pages/Restaurant-Mexico-Viejo-En-El-Zocalo-En-Mexico-DF/311710652207334,19.435106,-99.13392,"Mexicana, Latina",4.0,4.5,4.0,4.0
663,664,Alaia,4.0,114.0,5616 7630,http://www.alaia.com.mx,19.33327,-99.204285,"Mediterránea, Española",4.0,3.5,3.5,3.5
664,665,Royal India,4.5,41.0,+52 55 4368 4858,http://royalindia.com.mx/,19.436094,-99.20533,De la India,4.5,4.0,4.5,
665,666,Casa de Castilla,4.0,97.0,+52 55 5663 5052,http://grupocastellano.com.mx/casa-de-castilla/,19.353497,-99.190186,"Española, Europea",4.0,4.0,3.5,4.0
666,667,Guria,4.0,70.0,+52 55 5292 4647,http://www.guria.mx,19.364346,-99.26038,"Española, Europea",4.5,4.5,3.5,4.5
667,668,La Cerveceria de Barrio Rio Lerma,4.0,129.0,+52 55 5525 9932,http://www.lacerveceria.com.mx/site/,19.427881,-99.170135,"Mexicana, Latina, Bar",4.0,4.0,3.5,
668,669,Café Milou,4.5,40.0,+52 55 7866 4575,http://www.cafemilou.com,19.418663,-99.17518,"Francesa, Europea, Café, Bar de vinos",4.5,4.5,4.0,
669,670,Yerba Santa,5.0,14.0,+52 55 7826 0231,http://yerbasantamx.com/,19.427824,-99.17342,"Mexicana, Contemporánea",,,,
670,671,el fogoncito,4.0,70.0,044556389278738,http://www.fogoncito.com/,19.43047,-99.18855,"Mexicana, Latina, Española",4.0,4.0,3.5,3.5
671,672,Los Bisquets De Obregon,4.0,71.0,,http://bisquetsobregon.com/,19.434393,-99.152016,Mexicana,3.5,3.5,3.5,
672,673,Vips,4.5,38.0,+52 229 932 8911,http://www.vips.com.mx,19.187084,-96.12307,"Mexicana, Café, Comida rápida",,,,
673,674,Mesón del Cid,4.0,90.0,+52 55 5521 6998,http://www.mesondelcid.com.mx,19.432644,-99.14866,Española,4.0,4.0,3.5,4.0
674,675,Lucrezio Di Pasta e Vino,4.5,49.0,+52 55 5668 1423,http://www.facebook.com/lucreziodipastaevino/,19.332148,-99.20836,Italiana,4.5,4.5,4.0,
675,676,"La Lombarda, Fonda De Puerto",5.0,28.0,+52 55 5801 9547,http://www.LaLombarda.Mx,19.411657,-99.16617,"Mexicana, Mariscos",5.0,5.0,5.0,
676,677,Bravissimo Restaurante,5.0,22.0,+52 55 5086 3346,http://www.bravissimo.com.mx,19.352718,-99.163994,"Italiana, Pizzería, Mediterránea",4.5,5.0,4.5,
677,678,El Pescadito,4.0,59.0,+52 55 5536 7403,https://www.facebook.com/pages/El-Pescadito-del-Valle/592345807481656,19.39598,-99.16994,"Mexicana, Mariscos",4.5,4.0,4.0,
678,679,Público Comedor,4.5,34.0,+52 55 1454 2531,http://www.workn.co/moliere.php,19.43124,-99.2023,Mexicana,4.5,4.5,4.5,
679,680,Guadiana - Satelite,4.0,84.0,+52 55 5562 4023,http://www.guadiana.com.mx/,19.505114,-99.23731,"Mexicana, Contemporánea",4.0,4.0,3.5,4.0
680,681,La Hamburbifería,5.0,21.0,+52 55 3036 5455,http://www.facebook.com/Hamburbifer%C3%ADa-1808488322755615/,19.300556,-99.112625,"Estadounidense, Mexicana, Churrasquería, Parrillada, Argentina, Sudamericana",,,,
681,682,Frutos Prohibidos Leibnitz,5.0,13.0,5225838976,http://frutosprohibidos.com/,19.42931,-99.17837,"Mexicana, Saludable",,,,
682,683,Cantina 20 | Antara,4.0,109.0,+52 55 5281 3181,http://www.cantina20.com,19.439108,-99.2034,"Mexicana, Bar, Bar de vinos, Latina, Contemporánea",4.0,3.5,3.5,
683,684,Fonda Argentina,4.0,78.0,+52 55 5535 5776,http://www.fondaargentina.com/,19.435858,-99.15233,"Churrasquería, Latina, Argentina, Mexicana",3.5,4.0,3.5,3.5
684,685,A La Parrilla,5.0,15.0,+52 55 5229 1200,,19.42621,-99.17025,"Saludable, Latina, Española",,,,
685,686,Havre 77,4.0,110.0,52081070,http://www.facebook.com/Havre-77-192447674455114/,19.425295,-99.16059,Francesa,4.5,3.5,3.5,
686,687,The Comrade,4.0,82.0,+52 55 5280 2195,http://www.thecomrade.mx/carta.html,19.430342,-99.198784,"Internacional, Bar, Pub",4.5,4.0,4.0,
687,688,Wing's Army Condesa,5.0,19.0,5244315449,http://www.wingsarmy.com/,19.370985,-99.07384,Estadounidense,5.0,5.0,5.0,
688,689,Embers Steakhouse,4.0,60.0,52821905,http://www.embers.com.mx,19.438429,-99.20235,Estadounidense,4.5,4.0,4.0,
